{"北海道":{"lat":43.06432,"lng":141.34688,"kana":"ほっかいどう","cities":[{"name":"札幌市","kana":"さっぽろし","lat":43.06197,"lng":141.35437},{"name":"札幌市中央区","kana":"さっぽろしちゅうおうく","lat":43.05545,"lng":141.3411},{"name":"札幌市北区","kana":"さっぽろしきたく","lat":43.09069,"lng":141.34088},{"name":"札幌市東区","kana":"さっぽろしひがしく","lat":43.07624,"lng":141.36366},{"name":"札幌市白石区","kana":"さっぽろししろいしく","lat":43.04545,"lng":141.39638},{"name":"札幌市豊平区","kana":"さっぽろしとよひらく","lat":43.03137,"lng":141.37997},{"name":"札幌市南区","kana":"さっぽろしみなみく","lat":42.99,"lng":141.3535},{"name":"札幌市西区","kana":"さっぽろしにしく","lat":43.07435,"lng":141.3009},{"name":"札幌市厚別区","kana":"さっぽろしあつべつく","lat":43.03621,"lng":141.47473},{"name":"札幌市手稲区","kana":"さっぽろしていねく","lat":43.12197,"lng":141.24578},{"name":"札幌市清田区","kana":"さっぽろしきよたく","lat":42.99943,"lng":141.44384},{"name":"函館市","kana":"はこだてし","lat":41.76871,"lng":140.72911},{"name":"小樽市","kana":"おたるし","lat":43.19075,"lng":140.99461},{"name":"旭川市","kana":"あさひかわし","lat":43.77143,"lng":142.36529},{"name":"室蘭市","kana":"むろらんし","lat":42.3152,"lng":140.97378},{"name":"釧路市","kana":"くしろし","lat":42.98486,"lng":144.38167},{"name":"帯広市","kana":"おびひろし","lat":42.92401,"lng":143.19619},{"name":"北見市","kana":"きたみし","lat":43.80291,"lng":143.89468},{"name":"夕張市","kana":"ゆうばりし","lat":43.05681,"lng":141.97407},{"name":"岩見沢市","kana":"いわみざわし","lat":43.19603,"lng":141.77535},{"name":"網走市","kana":"あばしりし","lat":44.02013,"lng":144.2684},{"name":"留萌市","kana":"るもいし","lat":43.94099,"lng":141.63701},{"name":"苫小牧市","kana":"とまこまいし","lat":42.63409,"lng":141.6055},{"name":"稚内市","kana":"わっかないし","lat":45.41687,"lng":141.6735},{"name":"美唄市","kana":"びばいし","lat":43.33295,"lng":141.85399},{"name":"芦別市","kana":"あしべつし","lat":43.51821,"lng":142.18955},{"name":"江別市","kana":"えべつし","lat":43.10367,"lng":141.5361},{"name":"赤平市","kana":"あかびらし","lat":43.55804,"lng":142.04422},{"name":"紋別市","kana":"もんべつし","lat":44.35633,"lng":143.35428},{"name":"士別市","kana":"しべつし","lat":44.17818,"lng":142.40093},{"name":"名寄市","kana":"なよろし","lat":44.35592,"lng":142.46313},{"name":"三笠市","kana":"みかさし","lat":43.24562,"lng":141.87534},{"name":"根室市","kana":"ねむろし","lat":43.33011,"lng":145.58347},{"name":"千歳市","kana":"ちとせし","lat":42.82112,"lng":141.65114},{"name":"滝川市","kana":"たきかわし","lat":43.55775,"lng":141.91037},{"name":"砂川市","kana":"すながわし","lat":43.49433,"lng":141.90252},{"name":"歌志内市","kana":"うたしないし","lat":43.52168,"lng":142.03535},{"name":"深川市","kana":"ふかがわし","lat":43.72364,"lng":142.0538},{"name":"富良野市","kana":"ふらのし","lat":43.34235,"lng":142.38341},{"name":"登別市","kana":"のぼりべつし","lat":42.41273,"lng":141.10656},{"name":"恵庭市","kana":"えにわし","lat":42.88259,"lng":141.5778},{"name":"伊達市","kana":"だてし","lat":42.4719,"lng":140.8647},{"name":"北広島市","kana":"きたひろしまし","lat":42.98566,"lng":141.56363},{"name":"石狩市","kana":"いしかりし","lat":43.17137,"lng":141.31551},{"name":"北斗市","kana":"ほくとし","lat":41.82417,"lng":140.65307},{"name":"当別町","kana":"とうべつちょう","lat":43.22364,"lng":141.517},{"name":"新篠津村","kana":"しんしのつむら","lat":43.22537,"lng":141.64925},{"name":"松前町","kana":"まつまえちょう","lat":41.42998,"lng":140.1104},{"name":"福島町","kana":"ふくしまちょう","lat":41.48378,"lng":140.25132},{"name":"知内町","kana":"しりうちちょう","lat":41.59838,"lng":140.41886},{"name":"木古内町","kana":"きこないちょう","lat":41.67833,"lng":140.43764},{"name":"七飯町","kana":"ななえちょう","lat":41.89571,"lng":140.6944},{"name":"鹿部町","kana":"しかべちょう","lat":42.02664,"lng":140.83167},{"name":"森町","kana":"もりまち","lat":42.10499,"lng":140.57645},{"name":"八雲町","kana":"やくもちょう","lat":42.25592,"lng":140.26522},{"name":"長万部町","kana":"おしゃまんべちょう","lat":42.51349,"lng":140.38034},{"name":"江差町","kana":"えさしちょう","lat":41.86924,"lng":140.12756},{"name":"上ノ国町","kana":"かみのくにちょう","lat":41.80104,"lng":140.1214},{"name":"厚沢部町","kana":"あっさぶちょう","lat":41.9209,"lng":140.22547},{"name":"乙部町","kana":"おとべちょう","lat":41.9685,"lng":140.13546},{"name":"奥尻町","kana":"おくしりちょう","lat":42.17226,"lng":139.51221},{"name":"今金町","kana":"いまかねちょう","lat":42.42937,"lng":140.00877},{"name":"せたな町","kana":"せたなちょう","lat":42.41714,"lng":139.883},{"name":"島牧村","kana":"しままきむら","lat":42.70047,"lng":140.06145},{"name":"寿都町","kana":"すっつちょう","lat":42.79098,"lng":140.22889},{"name":"黒松内町","kana":"くろまつないちょう","lat":42.66779,"lng":140.30774},{"name":"蘭越町","kana":"らんこしちょう","lat":42.8092,"lng":140.52835},{"name":"ニセコ町","kana":"にせこちょう","lat":42.80503,"lng":140.68799},{"name":"真狩村","kana":"まっかりむら","lat":42.76295,"lng":140.80367},{"name":"留寿都村","kana":"るすつむら","lat":42.73726,"lng":140.87557},{"name":"喜茂別町","kana":"きもべつちょう","lat":42.79544,"lng":140.93453},{"name":"京極町","kana":"きょうごくちょう","lat":42.85822,"lng":140.884},{"name":"倶知安町","kana":"くっちゃんちょう","lat":42.90146,"lng":140.75901},{"name":"共和町","kana":"きょうわちょう","lat":42.98041,"lng":140.61118},{"name":"岩内町","kana":"いわないちょう","lat":42.97976,"lng":140.51477},{"name":"泊村","kana":"とまりむら","lat":43.06321,"lng":140.49886},{"name":"神恵内村","kana":"かもえないむら","lat":43.14337,"lng":140.4308},{"name":"積丹町","kana":"しゃこたんちょう","lat":43.29871,"lng":140.598},{"name":"古平町","kana":"ふるびらちょう","lat":43.26535,"lng":140.63908},{"name":"仁木町","kana":"にきちょう","lat":43.15167,"lng":140.76617},{"name":"余市町","kana":"よいちちょう","lat":43.19534,"lng":140.78354},{"name":"赤井川村","kana":"あかいがわむら","lat":43.08348,"lng":140.81364},{"name":"南幌町","kana":"なんぽろちょう","lat":43.06374,"lng":141.65033},{"name":"奈井江町","kana":"ないえちょう","lat":43.42545,"lng":141.88354},{"name":"上砂川町","kana":"かみすながわちょう","lat":43.48271,"lng":141.9842},{"name":"由仁町","kana":"ゆにちょう","lat":42.9996,"lng":141.79031},{"name":"長沼町","kana":"ながぬまちょう","lat":43.01034,"lng":141.69537},{"name":"栗山町","kana":"くりやまちょう","lat":43.05629,"lng":141.7841},{"name":"月形町","kana":"つきがたちょう","lat":43.3384,"lng":141.6696},{"name":"浦臼町","kana":"うらうすちょう","lat":43.43036,"lng":141.81873},{"name":"新十津川町","kana":"しんとつかわちょう","lat":43.54878,"lng":141.87713},{"name":"妹背牛町","kana":"もせうしちょう","lat":43.70009,"lng":141.96161},{"name":"秩父別町","kana":"ちっぷべつちょう","lat":43.767,"lng":141.9579},{"name":"雨竜町","kana":"うりゅうちょう","lat":43.64394,"lng":141.88904},{"name":"北竜町","kana":"ほくりゅうちょう","lat":43.73143,"lng":141.87941},{"name":"沼田町","kana":"ぬまたちょう","lat":43.80674,"lng":141.93382},{"name":"鷹栖町","kana":"たかすちょう","lat":43.84332,"lng":142.35438},{"name":"東神楽町","kana":"ひがしかぐらちょう","lat":43.69638,"lng":142.45154},{"name":"当麻町","kana":"とうまちょう","lat":43.8282,"lng":142.50839},{"name":"比布町","kana":"ぴっぷちょう","lat":43.87502,"lng":142.4777},{"name":"愛別町","kana":"あいべつちょう","lat":43.90668,"lng":142.57782},{"name":"上川町","kana":"かみかわちょう","lat":43.84713,"lng":142.77046},{"name":"東川町","kana":"ひがしかわちょう","lat":43.69888,"lng":142.51013},{"name":"美瑛町","kana":"びえいちょう","lat":43.58828,"lng":142.46705},{"name":"上富良野町","kana":"かみふらのちょう","lat":43.45561,"lng":142.46711},{"name":"中富良野町","kana":"なかふらのちょう","lat":43.40558,"lng":142.42503},{"name":"南富良野町","kana":"みなみふらのちょう","lat":43.16409,"lng":142.56852},{"name":"占冠村","kana":"しむかっぷむら","lat":42.97984,"lng":142.39853},{"name":"和寒町","kana":"わっさむちょう","lat":44.02312,"lng":142.41338},{"name":"剣淵町","kana":"けんぶちちょう","lat":44.09575,"lng":142.36101},{"name":"下川町","kana":"しもかわちょう","lat":44.30258,"lng":142.63522},{"name":"美深町","kana":"びふかちょう","lat":44.48099,"lng":142.34296},{"name":"音威子府村","kana":"おといねっぷむら","lat":44.7251,"lng":142.26246},{"name":"中川町","kana":"なかがわちょう","lat":44.81149,"lng":142.07141},{"name":"幌加内町","kana":"ほろかないちょう","lat":44.00981,"lng":142.15383},{"name":"増毛町","kana":"ましけちょう","lat":43.85606,"lng":141.52498},{"name":"小平町","kana":"おびらちょう","lat":44.01514,"lng":141.66283},{"name":"苫前町","kana":"とままえちょう","lat":44.30609,"lng":141.65293},{"name":"羽幌町","kana":"はぼろちょう","lat":44.36061,"lng":141.69725},{"name":"初山別村","kana":"しょさんべつむら","lat":44.53215,"lng":141.76634},{"name":"遠別町","kana":"えんべつちょう","lat":44.72246,"lng":141.79232},{"name":"天塩町","kana":"てしおちょう","lat":44.88812,"lng":141.74532},{"name":"猿払村","kana":"さるふつむら","lat":45.33061,"lng":142.10895},{"name":"浜頓別町","kana":"はまとんべつちょう","lat":45.12372,"lng":142.35964},{"name":"中頓別町","kana":"なかとんべつちょう","lat":44.96971,"lng":142.28671},{"name":"枝幸町","kana":"えさしちょう","lat":44.9387,"lng":142.5814},{"name":"豊富町","kana":"とよとみちょう","lat":45.10285,"lng":141.77751},{"name":"礼文町","kana":"れぶんちょう","lat":45.30306,"lng":141.04772},{"name":"利尻町","kana":"りしりちょう","lat":45.18704,"lng":141.1396},{"name":"利尻富士町","kana":"りしりふじちょう","lat":45.24746,"lng":141.21472},{"name":"幌延町","kana":"ほろのべちょう","lat":45.01763,"lng":141.84939},{"name":"美幌町","kana":"びほろちょう","lat":43.82425,"lng":144.10752},{"name":"津別町","kana":"つべつちょう","lat":43.70626,"lng":144.02524},{"name":"斜里町","kana":"しゃりちょう","lat":43.91144,"lng":144.67071},{"name":"清里町","kana":"きよさとちょう","lat":43.83522,"lng":144.59458},{"name":"小清水町","kana":"こしみずちょう","lat":43.85703,"lng":144.46253},{"name":"訓子府町","kana":"くんねっぷちょう","lat":43.72533,"lng":143.74167},{"name":"置戸町","kana":"おけとちょう","lat":43.67633,"lng":143.5864},{"name":"佐呂間町","kana":"さろまちょう","lat":44.01786,"lng":143.77471},{"name":"遠軽町","kana":"えんがるちょう","lat":44.06195,"lng":143.52773},{"name":"湧別町","kana":"ゆうべつちょう","lat":44.15147,"lng":143.57292},{"name":"滝上町","kana":"たきのうえちょう","lat":44.19227,"lng":143.07765},{"name":"興部町","kana":"おこっぺちょう","lat":44.46987,"lng":143.1237},{"name":"西興部村","kana":"にしおこっぺむら","lat":44.32883,"lng":142.94445},{"name":"雄武町","kana":"おうむちょう","lat":44.58248,"lng":142.96186},{"name":"大空町","kana":"おおぞらちょう","lat":43.91186,"lng":144.17247},{"name":"豊浦町","kana":"とようらちょう","lat":42.58346,"lng":140.71182},{"name":"壮瞥町","kana":"そうべつちょう","lat":42.55256,"lng":140.88547},{"name":"白老町","kana":"しらおいちょう","lat":42.55126,"lng":141.35586},{"name":"厚真町","kana":"あつまちょう","lat":42.72357,"lng":141.87784},{"name":"洞爺湖町","kana":"とうやこちょう","lat":42.55122,"lng":140.76413},{"name":"安平町","kana":"あびらちょう","lat":42.7628,"lng":141.81805},{"name":"むかわ町","kana":"むかわちょう","lat":42.57474,"lng":141.92676},{"name":"日高町","kana":"ひだかちょう","lat":42.48032,"lng":142.07436},{"name":"平取町","kana":"びらとりちょう","lat":42.5851,"lng":142.12852},{"name":"新冠町","kana":"にいかっぷちょう","lat":42.36242,"lng":142.31832},{"name":"浦河町","kana":"うらかわちょう","lat":42.16835,"lng":142.76821},{"name":"様似町","kana":"さまにちょう","lat":42.12774,"lng":142.9338},{"name":"えりも町","kana":"えりもちょう","lat":42.0163,"lng":143.14835},{"name":"新ひだか町","kana":"しんひだかちょう","lat":42.34128,"lng":142.36859},{"name":"音更町","kana":"おとふけちょう","lat":42.99412,"lng":143.19787},{"name":"士幌町","kana":"しほろちょう","lat":43.16805,"lng":143.24134},{"name":"上士幌町","kana":"かみしほろちょう","lat":43.23262,"lng":143.29624},{"name":"鹿追町","kana":"しかおいちょう","lat":43.09888,"lng":142.98903},{"name":"新得町","kana":"しんとくちょう","lat":43.07955,"lng":142.83898},{"name":"清水町","kana":"しみずちょう","lat":43.01142,"lng":142.88457},{"name":"芽室町","kana":"めむろちょう","lat":42.91155,"lng":143.05084},{"name":"中札内村","kana":"なかさつないむら","lat":42.69786,"lng":143.1344},{"name":"更別村","kana":"さらべつむら","lat":42.65042,"lng":143.18779},{"name":"大樹町","kana":"たいきちょう","lat":42.4977,"lng":143.27899},{"name":"広尾町","kana":"ひろおちょう","lat":42.28584,"lng":143.3115},{"name":"幕別町","kana":"まくべつちょう","lat":42.9082,"lng":143.35609},{"name":"池田町","kana":"いけだちょう","lat":42.92898,"lng":143.44847},{"name":"豊頃町","kana":"とよころちょう","lat":42.80102,"lng":143.5059},{"name":"本別町","kana":"ほんべつちょう","lat":43.12461,"lng":143.61096},{"name":"足寄町","kana":"あしょろちょう","lat":43.24479,"lng":143.55393},{"name":"陸別町","kana":"りくべつちょう","lat":43.46891,"lng":143.74731},{"name":"浦幌町","kana":"うらほろちょう","lat":42.80895,"lng":143.65858},{"name":"釧路町","kana":"くしろちょう","lat":42.99612,"lng":144.46608},{"name":"厚岸町","kana":"あっけしちょう","lat":43.05195,"lng":144.84744},{"name":"浜中町","kana":"はまなかちょう","lat":43.07595,"lng":145.13113},{"name":"標茶町","kana":"しべちゃちょう","lat":43.30334,"lng":144.60066},{"name":"弟子屈町","kana":"てしかがちょう","lat":43.48535,"lng":144.45922},{"name":"鶴居村","kana":"つるいむら","lat":43.23016,"lng":144.32117},{"name":"白糠町","kana":"しらぬかちょう","lat":42.95616,"lng":144.07181},{"name":"別海町","kana":"べつかいちょう","lat":43.39399,"lng":145.11734},{"name":"中標津町","kana":"なかしべつちょう","lat":43.55519,"lng":144.9715},{"name":"標津町","kana":"しべつちょう","lat":43.66131,"lng":145.13133},{"name":"羅臼町","kana":"らうすちょう","lat":44.02195,"lng":145.18953}]},"青森県":{"lat":40.82444,"lng":140.74,"kana":"あおもりけん","cities":[{"name":"青森市","kana":"あおもりし","lat":40.82264,"lng":140.74696},{"name":"弘前市","kana":"ひろさきし","lat":40.60296,"lng":140.46401},{"name":"八戸市","kana":"はちのへし","lat":40.51228,"lng":141.4884},{"name":"黒石市","kana":"くろいしし","lat":40.64261,"lng":140.59455},{"name":"五所川原市","kana":"ごしょがわらし","lat":40.80783,"lng":140.44612},{"name":"十和田市","kana":"とわだし","lat":40.6127,"lng":141.20591},{"name":"三沢市","kana":"みさわし","lat":40.68308,"lng":141.36909},{"name":"むつ市","kana":"むつし","lat":41.29283,"lng":141.18317},{"name":"つがる市","kana":"つがるし","lat":40.80884,"lng":140.38019},{"name":"平川市","kana":"ひらかわし","lat":40.58374,"lng":140.56712},{"name":"平内町","kana":"ひらないまち","lat":40.92602,"lng":140.95588},{"name":"今別町","kana":"いまべつまち","lat":41.18187,"lng":140.48161},{"name":"蓬田村","kana":"よもぎたむら","lat":40.9703,"lng":140.65189},{"name":"外ヶ浜町","kana":"そとがはままち","lat":41.04316,"lng":140.63224},{"name":"鰺ヶ沢町","kana":"あじがさわまち","lat":40.78301,"lng":140.23391},{"name":"深浦町","kana":"ふかうらまち","lat":40.64788,"lng":139.92743},{"name":"西目屋村","kana":"にしめやむら","lat":40.57749,"lng":140.29732},{"name":"藤崎町","kana":"ふじさきまち","lat":40.65606,"lng":140.50282},{"name":"大鰐町","kana":"おおわにまち","lat":40.51836,"lng":140.56788},{"name":"田舎館村","kana":"いなかだてむら","lat":40.63126,"lng":140.5502},{"name":"板柳町","kana":"いたやなぎまち","lat":40.69595,"lng":140.4577},{"name":"鶴田町","kana":"つるたまち","lat":40.75882,"lng":140.4287},{"name":"中泊町","kana":"なかどまりまち","lat":40.96043,"lng":140.43412},{"name":"野辺地町","kana":"のへじまち","lat":40.86439,"lng":141.12794},{"name":"七戸町","kana":"しちのへまち","lat":40.74471,"lng":141.15799},{"name":"六戸町","kana":"ろくのへまち","lat":40.60953,"lng":141.32496},{"name":"横浜町","kana":"よこはままち","lat":41.08315,"lng":141.24778},{"name":"東北町","kana":"とうほくまち","lat":40.72787,"lng":141.25789},{"name":"六ヶ所村","kana":"ろっかしょむら","lat":40.96737,"lng":141.37443},{"name":"おいらせ町","kana":"おいらせちょう","lat":40.5991,"lng":141.39782},{"name":"大間町","kana":"おおままち","lat":41.52239,"lng":140.90483},{"name":"東通村","kana":"ひがしどおりむら","lat":41.27773,"lng":141.3289},{"name":"風間浦村","kana":"かざまうらむら","lat":41.48749,"lng":140.99553},{"name":"佐井村","kana":"さいむら","lat":41.42972,"lng":140.85917},{"name":"三戸町","kana":"さんのへまち","lat":40.37842,"lng":141.25874},{"name":"五戸町","kana":"ごのへまち","lat":40.53121,"lng":141.30781},{"name":"田子町","kana":"たっこまち","lat":40.34003,"lng":141.15215},{"name":"南部町","kana":"なんぶちょう","lat":40.42034,"lng":141.33031},{"name":"階上町","kana":"はしかみちょう","lat":40.45245,"lng":141.621},{"name":"新郷村","kana":"しんごうむら","lat":40.46578,"lng":141.1734}]},"岩手県":{"lat":39.70357,"lng":141.15265,"kana":"いわてけん","cities":[{"name":"盛岡市","kana":"もりおかし","lat":39.70179,"lng":141.15418},{"name":"宮古市","kana":"みやこし","lat":39.63955,"lng":141.94611},{"name":"大船渡市","kana":"おおふなとし","lat":39.0819,"lng":141.70855},{"name":"花巻市","kana":"はなまきし","lat":39.38861,"lng":141.11685},{"name":"北上市","kana":"きたかみし","lat":39.28682,"lng":141.11316},{"name":"久慈市","kana":"くじし","lat":40.19047,"lng":141.77564},{"name":"遠野市","kana":"とおのし","lat":39.33101,"lng":141.53235},{"name":"一関市","kana":"いちのせきし","lat":38.93475,"lng":141.12676},{"name":"陸前高田市","kana":"りくぜんたかたし","lat":39.02041,"lng":141.63332},{"name":"釜石市","kana":"かまいしし","lat":39.27581,"lng":141.88572},{"name":"二戸市","kana":"にのへし","lat":40.27119,"lng":141.3048},{"name":"八幡平市","kana":"はちまんたいし","lat":39.95651,"lng":141.07112},{"name":"奥州市","kana":"おうしゅうし","lat":39.14451,"lng":141.13912},{"name":"滝沢市","kana":"たきざわし","lat":39.73474,"lng":141.07707},{"name":"雫石町","kana":"しずくいしちょう","lat":39.69632,"lng":140.97578},{"name":"葛巻町","kana":"くずまきまち","lat":40.03996,"lng":141.43789},{"name":"岩手町","kana":"いわてまち","lat":39.97277,"lng":141.21217},{"name":"紫波町","kana":"しわちょう","lat":39.55454,"lng":141.1558},{"name":"矢巾町","kana":"やはばちょう","lat":39.60601,"lng":141.143},{"name":"西和賀町","kana":"にしわがまち","lat":39.31791,"lng":140.77875},{"name":"金ケ崎町","kana":"かねがさきちょう","lat":39.19569,"lng":141.11641},{"name":"平泉町","kana":"ひらいずみちょう","lat":38.98678,"lng":141.11398},{"name":"住田町","kana":"すみたちょう","lat":39.14221,"lng":141.57505},{"name":"大槌町","kana":"おおつちちょう","lat":39.3582,"lng":141.89973},{"name":"山田町","kana":"やまだまち","lat":39.46762,"lng":141.94892},{"name":"岩泉町","kana":"いわいずみちょう","lat":39.8432,"lng":141.79667},{"name":"田野畑村","kana":"たのはたむら","lat":39.93045,"lng":141.88886},{"name":"普代村","kana":"ふだいむら","lat":40.00516,"lng":141.88601},{"name":"軽米町","kana":"かるまいまち","lat":40.32668,"lng":141.46035},{"name":"野田村","kana":"のだむら","lat":40.11027,"lng":141.81767},{"name":"九戸村","kana":"くのへむら","lat":40.21136,"lng":141.41898},{"name":"洋野町","kana":"ひろのちょう","lat":40.4083,"lng":141.71865},{"name":"一戸町","kana":"いちのへまち","lat":40.21273,"lng":141.29546}]},"宮城県":{"lat":38.26893,"lng":140.87215,"kana":"みやぎけん","cities":[{"name":"仙台市","kana":"せんだいし","lat":38.26801,"lng":140.86962},{"name":"仙台市青葉区","kana":"せんだいしあおばく","lat":38.26909,"lng":140.87038},{"name":"仙台市宮城野区","kana":"せんだいしみやぎのく","lat":38.26619,"lng":140.90984},{"name":"仙台市若林区","kana":"せんだいしわかばやしく","lat":38.24418,"lng":140.90075},{"name":"仙台市太白区","kana":"せんだいしたいはくく","lat":38.2244,"lng":140.87721},{"name":"仙台市泉区","kana":"せんだいしいずみく","lat":38.32636,"lng":140.88162},{"name":"石巻市","kana":"いしのまきし","lat":38.43446,"lng":141.30291},{"name":"塩竈市","kana":"しおがまし","lat":38.31436,"lng":141.02203},{"name":"気仙沼市","kana":"けせんぬまし","lat":38.90813,"lng":141.57004},{"name":"白石市","kana":"しろいしし","lat":38.00247,"lng":140.61989},{"name":"名取市","kana":"なとりし","lat":38.1715,"lng":140.89185},{"name":"角田市","kana":"かくだし","lat":37.97702,"lng":140.78154},{"name":"多賀城市","kana":"たがじょうし","lat":38.2938,"lng":141.00437},{"name":"岩沼市","kana":"いわぬまし","lat":38.1043,"lng":140.86995},{"name":"登米市","kana":"とめし","lat":38.69186,"lng":141.18772},{"name":"栗原市","kana":"くりはらし","lat":38.73006,"lng":141.02151},{"name":"東松島市","kana":"ひがしまつしまし","lat":38.42613,"lng":141.21028},{"name":"大崎市","kana":"おおさきし","lat":38.57754,"lng":140.95573},{"name":"富谷市","kana":"とみやし","lat":38.39992,"lng":140.89549},{"name":"蔵王町","kana":"ざおうまち","lat":38.09813,"lng":140.65868},{"name":"七ケ宿町","kana":"しちかしゅくまち","lat":37.99306,"lng":140.44162},{"name":"大河原町","kana":"おおがわらまち","lat":38.04941,"lng":140.73077},{"name":"村田町","kana":"むらたまち","lat":38.11859,"lng":140.7224},{"name":"柴田町","kana":"しばたまち","lat":38.0566,"lng":140.7658},{"name":"川崎町","kana":"かわさきまち","lat":38.17775,"lng":140.64319},{"name":"丸森町","kana":"まるもりまち","lat":37.91154,"lng":140.76537},{"name":"亘理町","kana":"わたりちょう","lat":38.04426,"lng":140.86792},{"name":"山元町","kana":"やまもとちょう","lat":37.9627,"lng":140.87809},{"name":"松島町","kana":"まつしままち","lat":38.38015,"lng":141.06729},{"name":"七ヶ浜町","kana":"しちがはままち","lat":38.30455,"lng":141.05914},{"name":"利府町","kana":"りふちょう","lat":38.33035,"lng":140.97579},{"name":"大和町","kana":"たいわちょう","lat":38.43733,"lng":140.88631},{"name":"大郷町","kana":"おおさとちょう","lat":38.42424,"lng":141.00446},{"name":"大衡村","kana":"おおひらむら","lat":38.46728,"lng":140.87998},{"name":"色麻町","kana":"しかまちょう","lat":38.54892,"lng":140.84988},{"name":"加美町","kana":"かみまち","lat":38.57177,"lng":140.85476},{"name":"涌谷町","kana":"わくやちょう","lat":38.5397,"lng":141.12811},{"name":"美里町","kana":"みさとまち","lat":38.5444,"lng":141.05672},{"name":"女川町","kana":"おながわちょう","lat":38.44539,"lng":141.44269},{"name":"南三陸町","kana":"みなみさんりくちょう","lat":38.68067,"lng":141.46249}]},"秋田県":{"lat":39.71863,"lng":140.10238,"kana":"あきたけん","cities":[{"name":"秋田市","kana":"あきたし","lat":39.71993,"lng":140.10251},{"name":"能代市","kana":"のしろし","lat":40.21213,"lng":140.02664},{"name":"横手市","kana":"よこてし","lat":39.31378,"lng":140.56664},{"name":"大館市","kana":"おおだてし","lat":40.27168,"lng":140.56524},{"name":"男鹿市","kana":"おがし","lat":39.88672,"lng":139.8475},{"name":"湯沢市","kana":"ゆざわし","lat":39.16407,"lng":140.49468},{"name":"鹿角市","kana":"かづのし","lat":40.21579,"lng":140.78852},{"name":"由利本荘市","kana":"ゆりほんじょうし","lat":39.38581,"lng":140.04882},{"name":"潟上市","kana":"かたがみし","lat":39.85729,"lng":140.01305},{"name":"大仙市","kana":"だいせんし","lat":39.45309,"lng":140.47545},{"name":"北秋田市","kana":"きたあきたし","lat":40.22605,"lng":140.37073},{"name":"にかほ市","kana":"にかほし","lat":39.20307,"lng":139.90765},{"name":"仙北市","kana":"せんぼくし","lat":39.70004,"lng":140.73073},{"name":"小坂町","kana":"こさかまち","lat":40.33293,"lng":140.73619},{"name":"上小阿仁村","kana":"かみこあにむら","lat":40.06326,"lng":140.29574},{"name":"藤里町","kana":"ふじさとまち","lat":40.2784,"lng":140.26188},{"name":"三種町","kana":"みたねちょう","lat":40.10162,"lng":140.00498},{"name":"八峰町","kana":"はっぽうちょう","lat":40.31871,"lng":140.03862},{"name":"五城目町","kana":"ごじょうめまち","lat":39.94389,"lng":140.11131},{"name":"八郎潟町","kana":"はちろうがたまち","lat":39.94902,"lng":140.07336},{"name":"井川町","kana":"いかわまち","lat":39.91419,"lng":140.08127},{"name":"大潟村","kana":"おおがたむら","lat":40.01779,"lng":139.96006},{"name":"美郷町","kana":"みさとちょう","lat":39.46163,"lng":140.58213},{"name":"羽後町","kana":"うごまち","lat":39.19932,"lng":140.41288},{"name":"東成瀬村","kana":"ひがしなるせむら","lat":39.17918,"lng":140.64889}]},"山形県":{"lat":38.24055,"lng":140.36336,"kana":"やまがたけん","cities":[{"name":"山形市","kana":"やまがたし","lat":38.25544,"lng":140.33961},{"name":"米沢市","kana":"よねざわし","lat":37.92187,"lng":140.11614},{"name":"鶴岡市","kana":"つるおかし","lat":38.72718,"lng":139.82673},{"name":"酒田市","kana":"さかたし","lat":38.91439,"lng":139.83651},{"name":"新庄市","kana":"しんじょうし","lat":38.76496,"lng":140.30166},{"name":"寒河江市","kana":"さがえし","lat":38.38095,"lng":140.27607},{"name":"上山市","kana":"かみのやまし","lat":38.14956,"lng":140.26783},{"name":"村山市","kana":"むらやまし","lat":38.48335,"lng":140.38038},{"name":"長井市","kana":"ながいし","lat":38.10609,"lng":140.03395},{"name":"天童市","kana":"てんどうし","lat":38.36218,"lng":140.3778},{"name":"東根市","kana":"ひがしねし","lat":38.43129,"lng":140.39102},{"name":"尾花沢市","kana":"おばなざわし","lat":38.60062,"lng":140.40569},{"name":"南陽市","kana":"なんようし","lat":38.05512,"lng":140.14831},{"name":"山辺町","kana":"やまのべまち","lat":38.28922,"lng":140.26218},{"name":"中山町","kana":"なかやままち","lat":38.33312,"lng":140.28305},{"name":"河北町","kana":"かほくちょう","lat":38.42663,"lng":140.31459},{"name":"西川町","kana":"にしかわまち","lat":38.42649,"lng":140.14766},{"name":"朝日町","kana":"あさひまち","lat":38.29929,"lng":140.14592},{"name":"大江町","kana":"おおえまち","lat":38.38071,"lng":140.20679},{"name":"大石田町","kana":"おおいしだまち","lat":38.59388,"lng":140.37265},{"name":"金山町","kana":"かねやままち","lat":38.88344,"lng":140.33937},{"name":"最上町","kana":"もがみまち","lat":38.75847,"lng":140.51936},{"name":"舟形町","kana":"ふながたまち","lat":38.69142,"lng":140.31999},{"name":"真室川町","kana":"まむろがわまち","lat":38.85692,"lng":140.25156},{"name":"大蔵村","kana":"おおくらむら","lat":38.70412,"lng":140.23037},{"name":"鮭川村","kana":"さけがわむら","lat":38.79646,"lng":140.22201},{"name":"戸沢村","kana":"とざわむら","lat":38.7376,"lng":140.14357},{"name":"高畠町","kana":"たかはたまち","lat":38.00218,"lng":140.18895},{"name":"川西町","kana":"かわにしまち","lat":38.0052,"lng":140.05318},{"name":"小国町","kana":"おぐにまち","lat":38.06139,"lng":139.74333},{"name":"白鷹町","kana":"しらたかまち","lat":38.18307,"lng":140.09857},{"name":"飯豊町","kana":"いいでまち","lat":38.04571,"lng":139.98762},{"name":"三川町","kana":"みかわまち","lat":38.79453,"lng":139.84961},{"name":"庄内町","kana":"しょうないまち","lat":38.84956,"lng":139.90404},{"name":"遊佐町","kana":"ゆざまち","lat":39.01484,"lng":139.90866}]},"福島県":{"lat":37.75002,"lng":140.46774,"kana":"ふくしまけん","cities":[{"name":"福島市","kana":"ふくしまし","lat":37.76083,"lng":140.47475},{"name":"会津若松市","kana":"あいづわかまつし","lat":37.49443,"lng":139.92963},{"name":"郡山市","kana":"こおりやまし","lat":37.40046,"lng":140.35965},{"name":"いわき市","kana":"いわきし","lat":37.05046,"lng":140.88769},{"name":"白河市","kana":"しらかわし","lat":37.12638,"lng":140.21092},{"name":"須賀川市","kana":"すかがわし","lat":37.2865,"lng":140.37266},{"name":"喜多方市","kana":"きたかたし","lat":37.65113,"lng":139.87448},{"name":"相馬市","kana":"そうまし","lat":37.79735,"lng":140.91894},{"name":"二本松市","kana":"にほんまつし","lat":37.58478,"lng":140.4312},{"name":"田村市","kana":"たむらし","lat":37.44062,"lng":140.57631},{"name":"南相馬市","kana":"みなみそうまし","lat":37.6422,"lng":140.95724},{"name":"伊達市","kana":"だてし","lat":37.81909,"lng":140.56289},{"name":"本宮市","kana":"もとみやし","lat":37.51316,"lng":140.39388},{"name":"桑折町","kana":"こおりまち","lat":37.85465,"lng":140.5208},{"name":"国見町","kana":"くにみまち","lat":37.87681,"lng":140.54927},{"name":"川俣町","kana":"かわまたまち","lat":37.66499,"lng":140.59824},{"name":"大玉村","kana":"おおたまむら","lat":37.53436,"lng":140.37106},{"name":"鏡石町","kana":"かがみいしまち","lat":37.25286,"lng":140.3434},{"name":"天栄村","kana":"てんえいむら","lat":37.25558,"lng":140.24716},{"name":"下郷町","kana":"しもごうまち","lat":37.25557,"lng":139.87208},{"name":"檜枝岐村","kana":"ひのえまたむら","lat":37.02414,"lng":139.38894},{"name":"只見町","kana":"ただみまち","lat":37.34866,"lng":139.31579},{"name":"南会津町","kana":"みなみあいづまち","lat":37.20039,"lng":139.77321},{"name":"北塩原村","kana":"きたしおばらむら","lat":37.65567,"lng":139.93738},{"name":"西会津町","kana":"にしあいづまち","lat":37.5874,"lng":139.6493},{"name":"磐梯町","kana":"ばんだいまち","lat":37.5621,"lng":139.98877},{"name":"猪苗代町","kana":"いなわしろまち","lat":37.5578,"lng":140.10479},{"name":"会津坂下町","kana":"あいづばんげまち","lat":37.56146,"lng":139.82173},{"name":"湯川村","kana":"ゆがわむら","lat":37.56527,"lng":139.88687},{"name":"柳津町","kana":"やないづまち","lat":37.52604,"lng":139.71955},{"name":"三島町","kana":"みしままち","lat":37.47029,"lng":139.64444},{"name":"金山町","kana":"かねやままち","lat":37.45374,"lng":139.52452},{"name":"昭和村","kana":"しょうわむら","lat":37.33545,"lng":139.61067},{"name":"会津美里町","kana":"あいづみさとまち","lat":37.46517,"lng":139.83457},{"name":"西郷村","kana":"にしごうむら","lat":37.14177,"lng":140.1553},{"name":"泉崎村","kana":"いずみざきむら","lat":37.15378,"lng":140.30336},{"name":"中島村","kana":"なかじまむら","lat":37.14876,"lng":140.35023},{"name":"矢吹町","kana":"やぶきまち","lat":37.20122,"lng":140.33849},{"name":"棚倉町","kana":"たなぐらまち","lat":37.02987,"lng":140.37959},{"name":"矢祭町","kana":"やまつりまち","lat":36.87133,"lng":140.42476},{"name":"塙町","kana":"はなわまち","lat":36.95688,"lng":140.40981},{"name":"鮫川村","kana":"さめがわむら","lat":37.04223,"lng":140.5097},{"name":"石川町","kana":"いしかわまち","lat":37.15707,"lng":140.44678},{"name":"玉川村","kana":"たまかわむら","lat":37.21072,"lng":140.40894},{"name":"平田村","kana":"ひらたむら","lat":37.22199,"lng":140.57566},{"name":"浅川町","kana":"あさかわまち","lat":37.08095,"lng":140.41285},{"name":"古殿町","kana":"ふるどのまち","lat":37.08918,"lng":140.55569},{"name":"三春町","kana":"みはるまち","lat":37.4405,"lng":140.49339},{"name":"小野町","kana":"おのまち","lat":37.28682,"lng":140.62628},{"name":"広野町","kana":"ひろのまち","lat":37.2144,"lng":140.99456},{"name":"楢葉町","kana":"ならはまち","lat":37.2826,"lng":140.99346},{"name":"富岡町","kana":"とみおかまち","lat":37.3455,"lng":141.00865},{"name":"川内村","kana":"かわうちむら","lat":37.33768,"lng":140.80927},{"name":"大熊町","kana":"おおくままち","lat":37.38209,"lng":140.95826},{"name":"双葉町","kana":"ふたばまち","lat":37.4529,"lng":141.00637},{"name":"浪江町","kana":"なみえまち","lat":37.49459,"lng":141.00075},{"name":"葛尾村","kana":"かつらおむら","lat":37.50355,"lng":140.76452},{"name":"新地町","kana":"しんちまち","lat":37.87638,"lng":140.91959},{"name":"飯舘村","kana":"いいたてむら","lat":37.67895,"lng":140.73509}]},"茨城県":{"lat":36.34174,"lng":140.44682,"kana":"いばらきけん","cities":[{"name":"水戸市","kana":"みとし","lat":36.36586,"lng":140.47122},{"name":"日立市","kana":"ひたちし","lat":36.59902,"lng":140.65155},{"name":"土浦市","kana":"つちうらし","lat":36.07839,"lng":140.20414},{"name":"古河市","kana":"こがし","lat":36.17823,"lng":139.75537},{"name":"石岡市","kana":"いしおかし","lat":36.19084,"lng":140.28724},{"name":"結城市","kana":"ゆうきし","lat":36.28963,"lng":139.87147},{"name":"龍ケ崎市","kana":"りゅうがさきし","lat":35.91159,"lng":140.18227},{"name":"下妻市","kana":"しもつまし","lat":36.18439,"lng":139.96823},{"name":"常総市","kana":"じょうそうし","lat":36.02356,"lng":139.99393},{"name":"常陸太田市","kana":"ひたちおおたし","lat":36.53823,"lng":140.53093},{"name":"高萩市","kana":"たかはぎし","lat":36.71367,"lng":140.70951},{"name":"北茨城市","kana":"きたいばらきし","lat":36.80189,"lng":140.75103},{"name":"笠間市","kana":"かさまし","lat":36.34513,"lng":140.30423},{"name":"取手市","kana":"とりでし","lat":35.91147,"lng":140.05031},{"name":"牛久市","kana":"うしくし","lat":35.9794,"lng":140.14953},{"name":"つくば市","kana":"つくばし","lat":36.08356,"lng":140.07647},{"name":"ひたちなか市","kana":"ひたちなかし","lat":36.39661,"lng":140.53468},{"name":"鹿嶋市","kana":"かしまし","lat":35.96572,"lng":140.64485},{"name":"潮来市","kana":"いたこし","lat":35.94713,"lng":140.55536},{"name":"守谷市","kana":"もりやし","lat":35.95133,"lng":139.97547},{"name":"常陸大宮市","kana":"ひたちおおみやし","lat":36.54259,"lng":140.41101},{"name":"那珂市","kana":"なかし","lat":36.45742,"lng":140.48673},{"name":"筑西市","kana":"ちくせいし","lat":36.30526,"lng":139.97942},{"name":"坂東市","kana":"ばんどうし","lat":36.04836,"lng":139.88868},{"name":"稲敷市","kana":"いなしきし","lat":35.97293,"lng":140.30358},{"name":"かすみがうら市","kana":"かすみがうらし","lat":36.15181,"lng":140.23701},{"name":"桜川市","kana":"さくらがわし","lat":36.32727,"lng":140.09048},{"name":"神栖市","kana":"かみすし","lat":35.88997,"lng":140.66453},{"name":"行方市","kana":"なめがたし","lat":35.99017,"lng":140.4891},{"name":"鉾田市","kana":"ほこたし","lat":36.15869,"lng":140.51644},{"name":"つくばみらい市","kana":"つくばみらいし","lat":35.96291,"lng":140.03707},{"name":"小美玉市","kana":"おみたまし","lat":36.23928,"lng":140.35259},{"name":"茨城町","kana":"いばらきまち","lat":36.28692,"lng":140.42452},{"name":"大洗町","kana":"おおあらいまち","lat":36.31336,"lng":140.57489},{"name":"城里町","kana":"しろさとまち","lat":36.4793,"lng":140.37624},{"name":"東海村","kana":"とうかいむら","lat":36.47288,"lng":140.5663},{"name":"大子町","kana":"だいごまち","lat":36.76441,"lng":140.36344},{"name":"美浦村","kana":"みほむら","lat":36.00455,"lng":140.30191},{"name":"阿見町","kana":"あみまち","lat":36.03087,"lng":140.21477},{"name":"河内町","kana":"かわちまち","lat":35.88474,"lng":140.24452},{"name":"八千代町","kana":"やちよまち","lat":36.18163,"lng":139.89114},{"name":"五霞町","kana":"ごかまち","lat":36.11412,"lng":139.74583},{"name":"境町","kana":"さかいまち","lat":36.10853,"lng":139.79505},{"name":"利根町","kana":"とねまち","lat":35.85782,"lng":140.13911}]},"栃木県":{"lat":36.56583,"lng":139.88362,"kana":"とちぎけん","cities":[{"name":"宇都宮市","kana":"うつのみやし","lat":36.55512,"lng":139.88281},{"name":"足利市","kana":"あしかがし","lat":36.34015,"lng":139.4497},{"name":"栃木市","kana":"とちぎし","lat":36.38241,"lng":139.73411},{"name":"佐野市","kana":"さのし","lat":36.31437,"lng":139.57836},{"name":"鹿沼市","kana":"かぬまし","lat":36.56668,"lng":139.74505},{"name":"日光市","kana":"にっこうし","lat":36.71986,"lng":139.6982},{"name":"小山市","kana":"おやまし","lat":36.3145,"lng":139.80078},{"name":"真岡市","kana":"もおかし","lat":36.44051,"lng":140.01247},{"name":"大田原市","kana":"おおたわらし","lat":36.87108,"lng":140.01546},{"name":"矢板市","kana":"やいたし","lat":36.80673,"lng":139.92423},{"name":"那須塩原市","kana":"なすしおばらし","lat":36.96169,"lng":140.04604},{"name":"さくら市","kana":"さくらし","lat":36.6853,"lng":139.96647},{"name":"那須烏山市","kana":"なすからすやまし","lat":36.65689,"lng":140.15138},{"name":"下野市","kana":"しもつけし","lat":36.39523,"lng":139.85192},{"name":"上三川町","kana":"かみのかわまち","lat":36.43927,"lng":139.91021},{"name":"益子町","kana":"ましこまち","lat":36.46735,"lng":140.09338},{"name":"茂木町","kana":"もてぎまち","lat":36.53218,"lng":140.18753},{"name":"市貝町","kana":"いちかいまち","lat":36.54324,"lng":140.10211},{"name":"芳賀町","kana":"はがまち","lat":36.54821,"lng":140.0582},{"name":"壬生町","kana":"みぶまち","lat":36.44218,"lng":139.81467},{"name":"野木町","kana":"のぎまち","lat":36.23326,"lng":139.74082},{"name":"塩谷町","kana":"しおやまち","lat":36.7789,"lng":139.85694},{"name":"高根沢町","kana":"たかねざわまち","lat":36.63098,"lng":139.98667},{"name":"那須町","kana":"なすまち","lat":37.01977,"lng":140.12101},{"name":"那珂川町","kana":"なかがわまち","lat":36.73622,"lng":140.17282}]},"群馬県":{"lat":36.39119,"lng":139.06088,"kana":"ぐんまけん","cities":[{"name":"前橋市","kana":"まえばしし","lat":36.38941,"lng":139.06349},{"name":"高崎市","kana":"たかさきし","lat":36.32195,"lng":139.00335},{"name":"桐生市","kana":"きりゅうし","lat":36.40574,"lng":139.33082},{"name":"伊勢崎市","kana":"いせさきし","lat":36.31134,"lng":139.19696},{"name":"太田市","kana":"おおたし","lat":36.29113,"lng":139.37536},{"name":"沼田市","kana":"ぬまたし","lat":36.64396,"lng":139.04278},{"name":"館林市","kana":"たてばやしし","lat":36.24484,"lng":139.54206},{"name":"渋川市","kana":"しぶかわし","lat":36.48948,"lng":139.00039},{"name":"藤岡市","kana":"ふじおかし","lat":36.25851,"lng":139.07456},{"name":"富岡市","kana":"とみおかし","lat":36.25985,"lng":138.88995},{"name":"安中市","kana":"あんなかし","lat":36.3263,"lng":138.88724},{"name":"みどり市","kana":"みどりし","lat":36.39482,"lng":139.28108},{"name":"榛東村","kana":"しんとうむら","lat":36.43865,"lng":138.96712},{"name":"吉岡町","kana":"よしおかまち","lat":36.44744,"lng":139.0097},{"name":"上野村","kana":"うえのむら","lat":36.08313,"lng":138.77733},{"name":"神流町","kana":"かんなまち","lat":36.11601,"lng":138.91699},{"name":"下仁田町","kana":"しもにたまち","lat":36.21247,"lng":138.78908},{"name":"南牧村","kana":"なんもくむら","lat":36.15855,"lng":138.71141},{"name":"甘楽町","kana":"かんらまち","lat":36.24301,"lng":138.92175},{"name":"中之条町","kana":"なかのじょうまち","lat":36.58984,"lng":138.84107},{"name":"長野原町","kana":"ながのはらまち","lat":36.54432,"lng":138.64984},{"name":"嬬恋村","kana":"つまごいむら","lat":36.51673,"lng":138.5303},{"name":"草津町","kana":"くさつまち","lat":36.62071,"lng":138.59613},{"name":"高山村","kana":"たかやまむら","lat":36.62081,"lng":138.94348},{"name":"東吾妻町","kana":"ひがしあがつままち","lat":36.57156,"lng":138.82057},{"name":"片品村","kana":"かたしなむら","lat":36.77255,"lng":139.22524},{"name":"川場村","kana":"かわばむら","lat":36.69255,"lng":139.10348},{"name":"昭和村","kana":"しょうわむら","lat":36.6397,"lng":139.06635},{"name":"みなかみ町","kana":"みなかみまち","lat":36.67865,"lng":138.99905},{"name":"玉村町","kana":"たまむらまち","lat":36.30443,"lng":139.11492},{"name":"板倉町","kana":"いたくらまち","lat":36.22596,"lng":139.60194},{"name":"明和町","kana":"めいわまち","lat":36.21128,"lng":139.53423},{"name":"千代田町","kana":"ちよだまち","lat":36.21775,"lng":139.44244},{"name":"大泉町","kana":"おおいずみまち","lat":36.24786,"lng":139.40484},{"name":"邑楽町","kana":"おうらまち","lat":36.25239,"lng":139.4623}]},"埼玉県":{"lat":35.85703,"lng":139.64901,"kana":"さいたまけん","cities":[{"name":"さいたま市","kana":"さいたまし","lat":35.86151,"lng":139.6455},{"name":"さいたま市西区","kana":"さいたましにしく","lat":35.92517,"lng":139.57963},{"name":"さいたま市北区","kana":"さいたましきたく","lat":35.93139,"lng":139.62029},{"name":"さいたま市大宮区","kana":"さいたましおおみやく","lat":35.90178,"lng":139.63063},{"name":"さいたま市見沼区","kana":"さいたましみぬまく","lat":35.93522,"lng":139.65443},{"name":"さいたま市中央区","kana":"さいたましちゅうおうく","lat":35.88397,"lng":139.62618},{"name":"さいたま市桜区","kana":"さいたましさくらく","lat":35.85588,"lng":139.60977},{"name":"さいたま市浦和区","kana":"さいたましうらわく","lat":35.86197,"lng":139.64541},{"name":"さいたま市南区","kana":"さいたましみなみく","lat":35.84526,"lng":139.64544},{"name":"さいたま市緑区","kana":"さいたましみどりく","lat":35.87109,"lng":139.68402},{"name":"さいたま市岩槻区","kana":"さいたましいわつきく","lat":35.94988,"lng":139.69418},{"name":"川越市","kana":"かわごえし","lat":35.92511,"lng":139.48584},{"name":"熊谷市","kana":"くまがやし","lat":36.14736,"lng":139.38866},{"name":"川口市","kana":"かわぐちし","lat":35.80673,"lng":139.7234},{"name":"行田市","kana":"ぎょうだし","lat":36.13895,"lng":139.45565},{"name":"秩父市","kana":"ちちぶし","lat":35.99168,"lng":139.08548},{"name":"所沢市","kana":"ところざわし","lat":35.79967,"lng":139.46861},{"name":"飯能市","kana":"はんのうし","lat":35.85576,"lng":139.32779},{"name":"加須市","kana":"かぞし","lat":36.13144,"lng":139.60178},{"name":"本庄市","kana":"ほんじょうし","lat":36.24333,"lng":139.19063},{"name":"東松山市","kana":"ひがしまつやまし","lat":36.04216,"lng":139.39995},{"name":"春日部市","kana":"かすかべし","lat":35.97404,"lng":139.75476},{"name":"狭山市","kana":"さやまし","lat":35.85291,"lng":139.41223},{"name":"羽生市","kana":"はにゅうし","lat":36.17267,"lng":139.54859},{"name":"鴻巣市","kana":"こうのすし","lat":36.06576,"lng":139.52217},{"name":"深谷市","kana":"ふかやし","lat":36.19702,"lng":139.28171},{"name":"上尾市","kana":"あげおし","lat":35.97741,"lng":139.5932},{"name":"草加市","kana":"そうかし","lat":35.82539,"lng":139.80537},{"name":"越谷市","kana":"こしがやし","lat":35.89064,"lng":139.79104},{"name":"蕨市","kana":"わらびし","lat":35.82558,"lng":139.67959},{"name":"戸田市","kana":"とだし","lat":35.81764,"lng":139.67793},{"name":"入間市","kana":"いるまし","lat":35.83577,"lng":139.39106},{"name":"朝霞市","kana":"あさかし","lat":35.79725,"lng":139.59392},{"name":"志木市","kana":"しきし","lat":35.83659,"lng":139.58025},{"name":"和光市","kana":"わこうし","lat":35.7811,"lng":139.60569},{"name":"新座市","kana":"にいざし","lat":35.7935,"lng":139.56533},{"name":"桶川市","kana":"おけがわし","lat":36.00297,"lng":139.55818},{"name":"久喜市","kana":"くきし","lat":36.06206,"lng":139.66684},{"name":"北本市","kana":"きたもとし","lat":36.02703,"lng":139.53024},{"name":"八潮市","kana":"やしおし","lat":35.82231,"lng":139.83967},{"name":"富士見市","kana":"ふじみし","lat":35.85676,"lng":139.54907},{"name":"三郷市","kana":"みさとし","lat":35.83013,"lng":139.87225},{"name":"蓮田市","kana":"はすだし","lat":35.9945,"lng":139.6622},{"name":"坂戸市","kana":"さかどし","lat":35.95726,"lng":139.40298},{"name":"幸手市","kana":"さってし","lat":36.07809,"lng":139.72581},{"name":"鶴ヶ島市","kana":"つるがしまし","lat":35.93452,"lng":139.39313},{"name":"日高市","kana":"ひだかし","lat":35.90775,"lng":139.33914},{"name":"吉川市","kana":"よしかわし","lat":35.89596,"lng":139.85565},{"name":"ふじみ野市","kana":"ふじみのし","lat":35.8794,"lng":139.51982},{"name":"白岡市","kana":"しらおかし","lat":36.01907,"lng":139.67686},{"name":"伊奈町","kana":"いなまち","lat":35.99986,"lng":139.62388},{"name":"三芳町","kana":"みよしまち","lat":35.82835,"lng":139.52651},{"name":"毛呂山町","kana":"もろやままち","lat":35.9416,"lng":139.31595},{"name":"越生町","kana":"おごせまち","lat":35.96448,"lng":139.2942},{"name":"滑川町","kana":"なめがわまち","lat":36.06599,"lng":139.36092},{"name":"嵐山町","kana":"らんざんまち","lat":36.05657,"lng":139.32051},{"name":"小川町","kana":"おがわまち","lat":36.05666,"lng":139.26179},{"name":"川島町","kana":"かわじままち","lat":35.99249,"lng":139.48435},{"name":"吉見町","kana":"よしみまち","lat":36.03985,"lng":139.45373},{"name":"鳩山町","kana":"はとやままち","lat":35.98147,"lng":139.33411},{"name":"ときがわ町","kana":"ときがわまち","lat":36.00857,"lng":139.29676},{"name":"横瀬町","kana":"よこぜまち","lat":35.98729,"lng":139.10005},{"name":"皆野町","kana":"みなのまち","lat":36.07084,"lng":139.09875},{"name":"長瀞町","kana":"ながとろまち","lat":36.11479,"lng":139.10972},{"name":"小鹿野町","kana":"おがのまち","lat":36.01724,"lng":139.00868},{"name":"東秩父村","kana":"ひがしちちぶむら","lat":36.05815,"lng":139.19457},{"name":"美里町","kana":"みさとまち","lat":36.1771,"lng":139.18141},{"name":"神川町","kana":"かみかわまち","lat":36.2139,"lng":139.10158},{"name":"上里町","kana":"かみさとまち","lat":36.25162,"lng":139.14487},{"name":"寄居町","kana":"よりいまち","lat":36.11835,"lng":139.19301},{"name":"宮代町","kana":"みやしろまち","lat":36.02259,"lng":139.72307},{"name":"杉戸町","kana":"すぎとまち","lat":36.02562,"lng":139.73683},{"name":"松伏町","kana":"まつぶしまち","lat":35.92575,"lng":139.81514}]},"千葉県":{"lat":35.60456,"lng":140.12315,"kana":"ちばけん","cities":[{"name":"千葉市","kana":"ちばし","lat":35.60704,"lng":140.10607},{"name":"千葉市中央区","kana":"ちばしちゅうおうく","lat":35.60743,"lng":140.12305},{"name":"千葉市花見川区","kana":"ちばしはなみがわく","lat":35.66288,"lng":140.06906},{"name":"千葉市稲毛区","kana":"ちばしいなげく","lat":35.6362,"lng":140.10711},{"name":"千葉市若葉区","kana":"ちばしわかばく","lat":35.63402,"lng":140.15565},{"name":"千葉市緑区","kana":"ちばしみどりく","lat":35.5605,"lng":140.17615},{"name":"千葉市美浜区","kana":"ちばしみはまく","lat":35.64055,"lng":140.06304},{"name":"銚子市","kana":"ちょうしし","lat":35.73467,"lng":140.82679},{"name":"市川市","kana":"いちかわし","lat":35.72186,"lng":139.93107},{"name":"船橋市","kana":"ふなばしし","lat":35.69471,"lng":139.98262},{"name":"館山市","kana":"たてやまし","lat":34.99661,"lng":139.87008},{"name":"木更津市","kana":"きさらづし","lat":35.38121,"lng":139.9249},{"name":"松戸市","kana":"まつどし","lat":35.78765,"lng":139.90323},{"name":"野田市","kana":"のだし","lat":35.95511,"lng":139.87483},{"name":"茂原市","kana":"もばらし","lat":35.42854,"lng":140.28805},{"name":"成田市","kana":"なりたし","lat":35.77661,"lng":140.31878},{"name":"佐倉市","kana":"さくらし","lat":35.72344,"lng":140.22397},{"name":"東金市","kana":"とうがねし","lat":35.55993,"lng":140.36612},{"name":"旭市","kana":"あさひし","lat":35.71603,"lng":140.64818},{"name":"習志野市","kana":"ならしのし","lat":35.68163,"lng":140.02729},{"name":"柏市","kana":"かしわし","lat":35.8683,"lng":139.9762},{"name":"勝浦市","kana":"かつうらし","lat":35.15221,"lng":140.32087},{"name":"市原市","kana":"いちはらし","lat":35.4979,"lng":140.11559},{"name":"流山市","kana":"ながれやまし","lat":35.85629,"lng":139.90259},{"name":"八千代市","kana":"やちよし","lat":35.72238,"lng":140.09992},{"name":"我孫子市","kana":"あびこし","lat":35.86416,"lng":140.02822},{"name":"鴨川市","kana":"かもがわし","lat":35.11402,"lng":140.0988},{"name":"鎌ケ谷市","kana":"かまがやし","lat":35.77676,"lng":140.00074},{"name":"君津市","kana":"きみつし","lat":35.33042,"lng":139.90256},{"name":"富津市","kana":"ふっつし","lat":35.30414,"lng":139.85711},{"name":"浦安市","kana":"うらやすし","lat":35.65399,"lng":139.90219},{"name":"四街道市","kana":"よつかいどうし","lat":35.67029,"lng":140.16826},{"name":"袖ケ浦市","kana":"そでがうらし","lat":35.42994,"lng":139.95435},{"name":"八街市","kana":"やちまたし","lat":35.66586,"lng":140.31791},{"name":"印西市","kana":"いんざいし","lat":35.83233,"lng":140.14577},{"name":"白井市","kana":"しろいし","lat":35.7915,"lng":140.05637},{"name":"富里市","kana":"とみさとし","lat":35.72681,"lng":140.34307},{"name":"南房総市","kana":"みなみぼうそうし","lat":35.04315,"lng":139.84},{"name":"匝瑳市","kana":"そうさし","lat":35.70791,"lng":140.56436},{"name":"香取市","kana":"かとりし","lat":35.89773,"lng":140.49925},{"name":"山武市","kana":"さんむし","lat":35.60299,"lng":140.41353},{"name":"いすみ市","kana":"いすみし","lat":35.25389,"lng":140.38512},{"name":"大網白里市","kana":"おおあみしらさとし","lat":35.52171,"lng":140.32096},{"name":"酒々井町","kana":"しすいまち","lat":35.72475,"lng":140.26948},{"name":"栄町","kana":"さかえまち","lat":35.84087,"lng":140.24394},{"name":"神崎町","kana":"こうざきまち","lat":35.90161,"lng":140.40533},{"name":"多古町","kana":"たこまち","lat":35.73559,"lng":140.46773},{"name":"東庄町","kana":"とうのしょうまち","lat":35.83715,"lng":140.66879},{"name":"九十九里町","kana":"くじゅうくりまち","lat":35.53507,"lng":140.44025},{"name":"芝山町","kana":"しばやままち","lat":35.69306,"lng":140.41425},{"name":"横芝光町","kana":"よこしばひかりまち","lat":35.66561,"lng":140.5044},{"name":"一宮町","kana":"いちのみやまち","lat":35.37281,"lng":140.36873},{"name":"睦沢町","kana":"むつざわまち","lat":35.36109,"lng":140.31928},{"name":"長生村","kana":"ちょうせいむら","lat":35.41218,"lng":140.35406},{"name":"白子町","kana":"しらこまち","lat":35.45434,"lng":140.37425},{"name":"長柄町","kana":"ながらまち","lat":35.43115,"lng":140.22707},{"name":"長南町","kana":"ちょうなんまち","lat":35.38607,"lng":140.23678},{"name":"大多喜町","kana":"おおたきまち","lat":35.28482,"lng":140.24542},{"name":"御宿町","kana":"おんじゅくまち","lat":35.19148,"lng":140.34878},{"name":"鋸南町","kana":"きょなんまち","lat":35.11113,"lng":139.83564}]},"東京都":{"lat":35.68944,"lng":139.69167,"kana":"とうきょうと","cities":[{"name":"千代田区","kana":"ちよだく","lat":35.694,"lng":139.75363},{"name":"中央区","kana":"ちゅうおうく","lat":35.67059,"lng":139.772},{"name":"港区","kana":"みなとく","lat":35.65807,"lng":139.7516},{"name":"新宿区","kana":"しんじゅくく","lat":35.69389,"lng":139.70346},{"name":"文京区","kana":"ぶんきょうく","lat":35.70798,"lng":139.75247},{"name":"台東区","kana":"たいとうく","lat":35.71261,"lng":139.77998},{"name":"墨田区","kana":"すみだく","lat":35.71072,"lng":139.8015},{"name":"江東区","kana":"こうとうく","lat":35.67286,"lng":139.81736},{"name":"品川区","kana":"しながわく","lat":35.60907,"lng":139.73025},{"name":"目黒区","kana":"めぐろく","lat":35.64141,"lng":139.69812},{"name":"大田区","kana":"おおたく","lat":35.56126,"lng":139.71599},{"name":"世田谷区","kana":"せたがやく","lat":35.64648,"lng":139.65321},{"name":"渋谷区","kana":"しぶやく","lat":35.66398,"lng":139.69795},{"name":"中野区","kana":"なかのく","lat":35.7089,"lng":139.66288},{"name":"杉並区","kana":"すぎなみく","lat":35.69955,"lng":139.63641},{"name":"豊島区","kana":"としまく","lat":35.72612,"lng":139.71668},{"name":"北区","kana":"きたく","lat":35.75281,"lng":139.73366},{"name":"荒川区","kana":"あらかわく","lat":35.73608,"lng":139.78337},{"name":"板橋区","kana":"いたばしく","lat":35.75124,"lng":139.70925},{"name":"練馬区","kana":"ねりまく","lat":35.7356,"lng":139.65172},{"name":"足立区","kana":"あだちく","lat":35.77495,"lng":139.80458},{"name":"葛飾区","kana":"かつしかく","lat":35.74343,"lng":139.84721},{"name":"江戸川区","kana":"えどがわく","lat":35.70665,"lng":139.86831},{"name":"八王子市","kana":"はちおうじし","lat":35.66657,"lng":139.31608},{"name":"立川市","kana":"たちかわし","lat":35.71398,"lng":139.40785},{"name":"武蔵野市","kana":"むさしのし","lat":35.71784,"lng":139.56594},{"name":"三鷹市","kana":"みたかし","lat":35.68331,"lng":139.55988},{"name":"青梅市","kana":"おうめし","lat":35.78817,"lng":139.27499},{"name":"府中市","kana":"ふちゅうし","lat":35.6694,"lng":139.47759},{"name":"昭島市","kana":"あきしまし","lat":35.70571,"lng":139.35377},{"name":"調布市","kana":"ちょうふし","lat":35.65063,"lng":139.54068},{"name":"町田市","kana":"まちだし","lat":35.54656,"lng":139.43853},{"name":"小金井市","kana":"こがねいし","lat":35.69948,"lng":139.50299},{"name":"小平市","kana":"こだいらし","lat":35.7285,"lng":139.47747},{"name":"日野市","kana":"ひのし","lat":35.67135,"lng":139.39498},{"name":"東村山市","kana":"ひがしむらやまし","lat":35.75462,"lng":139.46848},{"name":"国分寺市","kana":"こくぶんじし","lat":35.69673,"lng":139.46978},{"name":"国立市","kana":"くにたちし","lat":35.68391,"lng":139.44137},{"name":"福生市","kana":"ふっさし","lat":35.7386,"lng":139.32674},{"name":"狛江市","kana":"こまえし","lat":35.63481,"lng":139.5787},{"name":"東大和市","kana":"ひがしやまとし","lat":35.74533,"lng":139.42659},{"name":"清瀬市","kana":"きよせし","lat":35.78527,"lng":139.52685},{"name":"東久留米市","kana":"ひがしくるめし","lat":35.75799,"lng":139.52967},{"name":"武蔵村山市","kana":"むさしむらやまし","lat":35.75491,"lng":139.38742},{"name":"多摩市","kana":"たまし","lat":35.63696,"lng":139.44637},{"name":"稲城市","kana":"いなぎし","lat":35.63794,"lng":139.5046},{"name":"羽村市","kana":"はむらし","lat":35.76717,"lng":139.31104},{"name":"あきる野市","kana":"あきるのし","lat":35.72896,"lng":139.29405},{"name":"西東京市","kana":"にしとうきょうし","lat":35.7255,"lng":139.53816},{"name":"瑞穂町","kana":"みずほまち","lat":35.77192,"lng":139.35412},{"name":"日の出町","kana":"ひのでまち","lat":35.74211,"lng":139.25741},{"name":"檜原村","kana":"ひのはらむら","lat":35.72684,"lng":139.14885},{"name":"奥多摩町","kana":"おくたままち","lat":35.80952,"lng":139.09621},{"name":"大島町","kana":"おおしままち","lat":34.75006,"lng":139.35562},{"name":"利島村","kana":"としまむら","lat":34.52935,"lng":139.28258},{"name":"新島村","kana":"にいじまむら","lat":34.37714,"lng":139.25656},{"name":"神津島村","kana":"こうづしまむら","lat":34.20537,"lng":139.13443},{"name":"三宅村","kana":"みやけむら","lat":34.07578,"lng":139.47975},{"name":"御蔵島村","kana":"みくらじまむら","lat":33.89716,"lng":139.59601},{"name":"八丈町","kana":"はちじょうまち","lat":33.1128,"lng":139.78906},{"name":"青ヶ島村","kana":"あおがしまむら","lat":32.46654,"lng":139.76334},{"name":"小笠原村","kana":"おがさわらむら","lat":27.09438,"lng":142.1919}]},"神奈川県":{"lat":35.44778,"lng":139.6425,"kana":"かながわけん","cities":[{"name":"横浜市","kana":"よこはまし","lat":35.4502,"lng":139.6349},{"name":"横浜市鶴見区","kana":"よこはましつるみく","lat":35.5084,"lng":139.68238},{"name":"横浜市神奈川区","kana":"よこはましかながわく","lat":35.47705,"lng":139.62929},{"name":"横浜市西区","kana":"よこはましにしく","lat":35.45361,"lng":139.61688},{"name":"横浜市中区","kana":"よこはましなかく","lat":35.44469,"lng":139.6422},{"name":"横浜市南区","kana":"よこはましみなみく","lat":35.43442,"lng":139.62751},{"name":"横浜市保土ケ谷区","kana":"よこはましほどがやく","lat":35.45985,"lng":139.59603},{"name":"横浜市磯子区","kana":"よこはましいそごく","lat":35.40249,"lng":139.61846},{"name":"横浜市金沢区","kana":"よこはましかなざわく","lat":35.3372,"lng":139.6245},{"name":"横浜市港北区","kana":"よこはましこうほくく","lat":35.51902,"lng":139.6332},{"name":"横浜市戸塚区","kana":"よこはましとつかく","lat":35.40022,"lng":139.53347},{"name":"横浜市港南区","kana":"よこはましこうなんく","lat":35.4008,"lng":139.59251},{"name":"横浜市旭区","kana":"よこはましあさひく","lat":35.47476,"lng":139.5448},{"name":"横浜市緑区","kana":"よこはましみどりく","lat":35.51241,"lng":139.53801},{"name":"横浜市瀬谷区","kana":"よこはましせやく","lat":35.4664,"lng":139.49919},{"name":"横浜市栄区","kana":"よこはましさかえく","lat":35.36439,"lng":139.55411},{"name":"横浜市泉区","kana":"よこはましいずみく","lat":35.4179,"lng":139.48869},{"name":"横浜市青葉区","kana":"よこはましあおばく","lat":35.55283,"lng":139.53709},{"name":"横浜市都筑区","kana":"よこはましつづきく","lat":35.54494,"lng":139.57103},{"name":"川崎市","kana":"かわさきし","lat":35.53086,"lng":139.70303},{"name":"川崎市川崎区","kana":"かわさきしかわさきく","lat":35.52939,"lng":139.70328},{"name":"川崎市幸区","kana":"かわさきしさいわいく","lat":35.54445,"lng":139.68698},{"name":"川崎市中原区","kana":"かわさきしなかはらく","lat":35.57626,"lng":139.65576},{"name":"川崎市高津区","kana":"かわさきしたかつく","lat":35.59944,"lng":139.60803},{"name":"川崎市多摩区","kana":"かわさきしたまく","lat":35.61961,"lng":139.56211},{"name":"川崎市宮前区","kana":"かわさきしみやまえく","lat":35.58922,"lng":139.57858},{"name":"川崎市麻生区","kana":"かわさきしあさおく","lat":35.60377,"lng":139.50569},{"name":"相模原市","kana":"さがみはらし","lat":35.57138,"lng":139.37327},{"name":"相模原市緑区","kana":"さがみはらしみどりく","lat":35.59564,"lng":139.33759},{"name":"相模原市中央区","kana":"さがみはらしちゅうおうく","lat":35.57138,"lng":139.37327},{"name":"相模原市南区","kana":"さがみはらしみなみく","lat":35.53034,"lng":139.43009},{"name":"横須賀市","kana":"よこすかし","lat":35.28128,"lng":139.67228},{"name":"平塚市","kana":"ひらつかし","lat":35.3355,"lng":139.34941},{"name":"鎌倉市","kana":"かまくらし","lat":35.31923,"lng":139.54669},{"name":"藤沢市","kana":"ふじさわし","lat":35.33894,"lng":139.49112},{"name":"小田原市","kana":"おだわらし","lat":35.26469,"lng":139.15236},{"name":"茅ヶ崎市","kana":"ちがさきし","lat":35.33388,"lng":139.4047},{"name":"逗子市","kana":"ずしし","lat":35.29559,"lng":139.58041},{"name":"三浦市","kana":"みうらし","lat":35.14418,"lng":139.62077},{"name":"秦野市","kana":"はだのし","lat":35.3748,"lng":139.21995},{"name":"厚木市","kana":"あつぎし","lat":35.44305,"lng":139.36244},{"name":"大和市","kana":"やまとし","lat":35.48752,"lng":139.45795},{"name":"伊勢原市","kana":"いせはらし","lat":35.40299,"lng":139.31491},{"name":"海老名市","kana":"えびなし","lat":35.44645,"lng":139.3908},{"name":"座間市","kana":"ざまし","lat":35.48864,"lng":139.40764},{"name":"南足柄市","kana":"みなみあしがらし","lat":35.32063,"lng":139.09973},{"name":"綾瀬市","kana":"あやせし","lat":35.43716,"lng":139.42635},{"name":"葉山町","kana":"はやままち","lat":35.27202,"lng":139.58628},{"name":"寒川町","kana":"さむかわまち","lat":35.37296,"lng":139.38419},{"name":"大磯町","kana":"おおいそまち","lat":35.30694,"lng":139.31135},{"name":"二宮町","kana":"にのみやまち","lat":35.29949,"lng":139.25553},{"name":"中井町","kana":"なかいまち","lat":35.33075,"lng":139.21877},{"name":"大井町","kana":"おおいまち","lat":35.32662,"lng":139.15665},{"name":"松田町","kana":"まつだまち","lat":35.3482,"lng":139.13934},{"name":"山北町","kana":"やまきたまち","lat":35.36063,"lng":139.08381},{"name":"開成町","kana":"かいせいまち","lat":35.33606,"lng":139.12341},{"name":"箱根町","kana":"はこねまち","lat":35.2323,"lng":139.10689},{"name":"真鶴町","kana":"まなづるまち","lat":35.1584,"lng":139.13723},{"name":"湯河原町","kana":"ゆがわらまち","lat":35.14793,"lng":139.10834},{"name":"愛川町","kana":"あいかわまち","lat":35.52875,"lng":139.32172},{"name":"清川村","kana":"きよかわむら","lat":35.48233,"lng":139.27637}]},"新潟県":{"lat":37.90245,"lng":139.02325,"kana":"にいがたけん","cities":[{"name":"新潟市","kana":"にいがたし","lat":37.91613,"lng":139.0364},{"name":"新潟市北区","kana":"にいがたしきたく","lat":37.91354,"lng":139.22161},{"name":"新潟市東区","kana":"にいがたしひがしく","lat":37.92489,"lng":139.09261},{"name":"新潟市中央区","kana":"にいがたしちゅうおうく","lat":37.92251,"lng":139.04323},{"name":"新潟市江南区","kana":"にいがたしこうなんく","lat":37.86766,"lng":139.09401},{"name":"新潟市秋葉区","kana":"にいがたしあきはく","lat":37.78836,"lng":139.11462},{"name":"新潟市南区","kana":"にいがたしみなみく","lat":37.76582,"lng":139.01918},{"name":"新潟市西区","kana":"にいがたしにしく","lat":37.87408,"lng":138.97165},{"name":"新潟市西蒲区","kana":"にいがたしにしかんく","lat":37.76033,"lng":138.88925},{"name":"長岡市","kana":"ながおかし","lat":37.44659,"lng":138.85122},{"name":"三条市","kana":"さんじょうし","lat":37.63677,"lng":138.9617},{"name":"柏崎市","kana":"かしわざきし","lat":37.36495,"lng":138.55801},{"name":"新発田市","kana":"しばたし","lat":37.94795,"lng":139.32715},{"name":"小千谷市","kana":"おぢやし","lat":37.31435,"lng":138.7951},{"name":"加茂市","kana":"かもし","lat":37.66633,"lng":139.04022},{"name":"十日町市","kana":"とおかまちし","lat":37.12759,"lng":138.75571},{"name":"見附市","kana":"みつけし","lat":37.5315,"lng":138.91272},{"name":"村上市","kana":"むらかみし","lat":38.22399,"lng":139.48004},{"name":"燕市","kana":"つばめし","lat":37.67315,"lng":138.88225},{"name":"糸魚川市","kana":"いといがわし","lat":37.03903,"lng":137.86266},{"name":"妙高市","kana":"みょうこうし","lat":37.02526,"lng":138.25349},{"name":"五泉市","kana":"ごせんし","lat":37.74448,"lng":139.18257},{"name":"上越市","kana":"じょうえつし","lat":37.14787,"lng":138.23604},{"name":"阿賀野市","kana":"あがのし","lat":37.83451,"lng":139.226},{"name":"佐渡市","kana":"さどし","lat":38.0183,"lng":138.36814},{"name":"魚沼市","kana":"うおぬまし","lat":37.23643,"lng":138.96377},{"name":"南魚沼市","kana":"みなみうおぬまし","lat":37.06552,"lng":138.87608},{"name":"胎内市","kana":"たいないし","lat":38.05971,"lng":139.41035},{"name":"聖籠町","kana":"せいろうまち","lat":37.97453,"lng":139.27437},{"name":"弥彦村","kana":"やひこむら","lat":37.69101,"lng":138.85525},{"name":"田上町","kana":"たがみまち","lat":37.69886,"lng":139.05799},{"name":"阿賀町","kana":"あがまち","lat":37.67549,"lng":139.45878},{"name":"出雲崎町","kana":"いずもざきまち","lat":37.53072,"lng":138.70936},{"name":"湯沢町","kana":"ゆざわまち","lat":36.93401,"lng":138.81742},{"name":"津南町","kana":"つなんまち","lat":37.01431,"lng":138.65255},{"name":"刈羽村","kana":"かりわむら","lat":37.42236,"lng":138.62244},{"name":"関川村","kana":"せきかわむら","lat":38.08941,"lng":139.56496},{"name":"粟島浦村","kana":"あわしまうらむら","lat":38.46821,"lng":139.25436}]},"富山県":{"lat":36.69527,"lng":137.21133,"kana":"とやまけん","cities":[{"name":"富山市","kana":"とやまし","lat":36.69598,"lng":137.21345},{"name":"高岡市","kana":"たかおかし","lat":36.7541,"lng":137.02572},{"name":"魚津市","kana":"うおづし","lat":36.82737,"lng":137.40919},{"name":"氷見市","kana":"ひみし","lat":36.85598,"lng":136.97287},{"name":"滑川市","kana":"なめりかわし","lat":36.76439,"lng":137.34118},{"name":"黒部市","kana":"くろべし","lat":36.87151,"lng":137.44803},{"name":"砺波市","kana":"となみし","lat":36.64747,"lng":136.96217},{"name":"小矢部市","kana":"おやべし","lat":36.67553,"lng":136.86865},{"name":"南砺市","kana":"なんとし","lat":36.55745,"lng":136.87543},{"name":"射水市","kana":"いみずし","lat":36.73048,"lng":137.0754},{"name":"舟橋村","kana":"ふなはしむら","lat":36.70352,"lng":137.30737},{"name":"上市町","kana":"かみいちまち","lat":36.69843,"lng":137.36259},{"name":"立山町","kana":"たてやままち","lat":36.66335,"lng":137.31366},{"name":"入善町","kana":"にゅうぜんまち","lat":36.92507,"lng":137.50514},{"name":"朝日町","kana":"あさひまち","lat":36.94618,"lng":137.55987}]},"石川県":{"lat":36.59461,"lng":136.62567,"kana":"いしかわけん","cities":[{"name":"金沢市","kana":"かなざわし","lat":36.56105,"lng":136.65663},{"name":"七尾市","kana":"ななおし","lat":37.04311,"lng":136.9673},{"name":"小松市","kana":"こまつし","lat":36.40836,"lng":136.44559},{"name":"輪島市","kana":"わじまし","lat":37.39055,"lng":136.89917},{"name":"珠洲市","kana":"すずし","lat":37.43637,"lng":137.26041},{"name":"加賀市","kana":"かがし","lat":36.30267,"lng":136.31468},{"name":"羽咋市","kana":"はくいし","lat":36.8936,"lng":136.779},{"name":"かほく市","kana":"かほくし","lat":36.71997,"lng":136.70667},{"name":"白山市","kana":"はくさんし","lat":36.51443,"lng":136.56583},{"name":"能美市","kana":"のみし","lat":36.44689,"lng":136.55403},{"name":"野々市市","kana":"ののいちし","lat":36.51947,"lng":136.60969},{"name":"川北町","kana":"かわきたまち","lat":36.46851,"lng":136.54241},{"name":"津幡町","kana":"つばたまち","lat":36.6688,"lng":136.72888},{"name":"内灘町","kana":"うちなだまち","lat":36.65353,"lng":136.64513},{"name":"志賀町","kana":"しかまち","lat":37.00619,"lng":136.77801},{"name":"宝達志水町","kana":"ほうだつしみずちょう","lat":36.86276,"lng":136.79756},{"name":"中能登町","kana":"なかのとまち","lat":36.98889,"lng":136.90148},{"name":"穴水町","kana":"あなみずまち","lat":37.23087,"lng":136.91248},{"name":"能登町","kana":"のとちょう","lat":37.31041,"lng":137.14778}]},"福井県":{"lat":36.06523,"lng":136.22178,"kana":"ふくいけん","cities":[{"name":"福井市","kana":"ふくいし","lat":36.06412,"lng":136.21945},{"name":"敦賀市","kana":"つるがし","lat":35.64559,"lng":136.05544},{"name":"小浜市","kana":"おばまし","lat":35.49559,"lng":135.74665},{"name":"大野市","kana":"おおのし","lat":35.98056,"lng":136.48769},{"name":"勝山市","kana":"かつやまし","lat":36.06092,"lng":136.50054},{"name":"鯖江市","kana":"さばえし","lat":35.95656,"lng":136.18424},{"name":"あわら市","kana":"あわらし","lat":36.21136,"lng":136.22901},{"name":"越前市","kana":"えちぜんし","lat":35.90392,"lng":136.16899},{"name":"坂井市","kana":"さかいし","lat":36.1668,"lng":136.2315},{"name":"永平寺町","kana":"えいへいじちょう","lat":36.09225,"lng":136.29872},{"name":"池田町","kana":"いけだちょう","lat":35.89038,"lng":136.34408},{"name":"南越前町","kana":"みなみえちぜんちょう","lat":35.83515,"lng":136.19443},{"name":"越前町","kana":"えちぜんちょう","lat":35.9742,"lng":136.12919},{"name":"美浜町","kana":"みはまちょう","lat":35.6006,"lng":135.94062},{"name":"高浜町","kana":"たかはまちょう","lat":35.4879,"lng":135.54597},{"name":"おおい町","kana":"おおいちょう","lat":35.48113,"lng":135.61789},{"name":"若狭町","kana":"わかさちょう","lat":35.54888,"lng":135.90838}]},"山梨県":{"lat":35.66389,"lng":138.56833,"kana":"やまなしけん","cities":[{"name":"甲府市","kana":"こうふし","lat":35.66203,"lng":138.56834},{"name":"富士吉田市","kana":"ふじよしだし","lat":35.4875,"lng":138.80786},{"name":"都留市","kana":"つるし","lat":35.55156,"lng":138.90547},{"name":"山梨市","kana":"やまなしし","lat":35.69343,"lng":138.68696},{"name":"大月市","kana":"おおつきし","lat":35.61047,"lng":138.94004},{"name":"韮崎市","kana":"にらさきし","lat":35.7088,"lng":138.44619},{"name":"南アルプス市","kana":"みなみあるぷすし","lat":35.60836,"lng":138.465},{"name":"北杜市","kana":"ほくとし","lat":35.7765,"lng":138.42354},{"name":"甲斐市","kana":"かいし","lat":35.66083,"lng":138.5158},{"name":"笛吹市","kana":"ふえふきし","lat":35.6473,"lng":138.63973},{"name":"上野原市","kana":"うえのはらし","lat":35.6303,"lng":139.10875},{"name":"甲州市","kana":"こうしゅうし","lat":35.70429,"lng":138.72942},{"name":"中央市","kana":"ちゅうおうし","lat":35.59964,"lng":138.51727},{"name":"市川三郷町","kana":"いちかわみさとちょう","lat":35.56512,"lng":138.50241},{"name":"早川町","kana":"はやかわちょう","lat":35.41266,"lng":138.36319},{"name":"身延町","kana":"みのぶちょう","lat":35.46757,"lng":138.44249},{"name":"南部町","kana":"なんぶちょう","lat":35.2423,"lng":138.48605},{"name":"富士川町","kana":"ふじかわちょう","lat":35.56095,"lng":138.46197},{"name":"昭和町","kana":"しょうわちょう","lat":35.62793,"lng":138.53515},{"name":"道志村","kana":"どうしむら","lat":35.52802,"lng":139.03343},{"name":"西桂町","kana":"にしかつらちょう","lat":35.52426,"lng":138.84741},{"name":"忍野村","kana":"おしのむら","lat":35.46006,"lng":138.84785},{"name":"山中湖村","kana":"やまなかこむら","lat":35.41064,"lng":138.86108},{"name":"鳴沢村","kana":"なるさわむら","lat":35.48132,"lng":138.70661},{"name":"富士河口湖町","kana":"ふじかわぐちこまち","lat":35.4973,"lng":138.75493},{"name":"小菅村","kana":"こすげむら","lat":35.76027,"lng":138.94028},{"name":"丹波山村","kana":"たばやまむら","lat":35.79174,"lng":138.91779}]},"長野県":{"lat":36.65131,"lng":138.1809,"kana":"ながのけん","cities":[{"name":"長野市","kana":"ながのし","lat":36.64863,"lng":138.19429},{"name":"松本市","kana":"まつもとし","lat":36.2381,"lng":137.97199},{"name":"上田市","kana":"うえだし","lat":36.40198,"lng":138.24868},{"name":"岡谷市","kana":"おかやし","lat":36.067,"lng":138.04956},{"name":"飯田市","kana":"いいだし","lat":35.5147,"lng":137.82182},{"name":"諏訪市","kana":"すわし","lat":36.03918,"lng":138.11398},{"name":"須坂市","kana":"すざかし","lat":36.65112,"lng":138.30728},{"name":"小諸市","kana":"こもろし","lat":36.32687,"lng":138.42602},{"name":"伊那市","kana":"いなし","lat":35.82748,"lng":137.95408},{"name":"駒ヶ根市","kana":"こまがねし","lat":35.72886,"lng":137.93399},{"name":"中野市","kana":"なかのし","lat":36.74203,"lng":138.36947},{"name":"大町市","kana":"おおまちし","lat":36.50298,"lng":137.85117},{"name":"飯山市","kana":"いいやまし","lat":36.85175,"lng":138.3655},{"name":"茅野市","kana":"ちのし","lat":35.99557,"lng":138.1589},{"name":"塩尻市","kana":"しおじりし","lat":36.11502,"lng":137.95338},{"name":"佐久市","kana":"さくし","lat":36.24879,"lng":138.47683},{"name":"千曲市","kana":"ちくまし","lat":36.53071,"lng":138.11489},{"name":"東御市","kana":"とうみし","lat":36.35955,"lng":138.3303},{"name":"安曇野市","kana":"あづみのし","lat":36.30393,"lng":137.90575},{"name":"小海町","kana":"こうみまち","lat":36.09524,"lng":138.48352},{"name":"川上村","kana":"かわかみむら","lat":35.97514,"lng":138.57848},{"name":"南牧村","kana":"みなみまきむら","lat":36.02091,"lng":138.49219},{"name":"南相木村","kana":"みなみあいきむら","lat":36.03607,"lng":138.54689},{"name":"北相木村","kana":"きたあいきむら","lat":36.0592,"lng":138.5512},{"name":"佐久穂町","kana":"さくほまち","lat":36.16025,"lng":138.48354},{"name":"軽井沢町","kana":"かるいざわまち","lat":36.34831,"lng":138.59697},{"name":"御代田町","kana":"みよたまち","lat":36.32273,"lng":138.50651},{"name":"立科町","kana":"たてしなまち","lat":36.27209,"lng":138.31599},{"name":"青木村","kana":"あおきむら","lat":36.37,"lng":138.1287},{"name":"長和町","kana":"ながわまち","lat":36.2699,"lng":138.25807},{"name":"下諏訪町","kana":"しもすわまち","lat":36.06958,"lng":138.08007},{"name":"富士見町","kana":"ふじみまち","lat":35.91465,"lng":138.24074},{"name":"原村","kana":"はらむら","lat":35.96435,"lng":138.21747},{"name":"辰野町","kana":"たつのまち","lat":35.98241,"lng":137.98743},{"name":"箕輪町","kana":"みのわまち","lat":35.91502,"lng":137.98199},{"name":"飯島町","kana":"いいじままち","lat":35.67662,"lng":137.91952},{"name":"南箕輪村","kana":"みなみみのわむら","lat":35.87285,"lng":137.97508},{"name":"中川村","kana":"なかがわむら","lat":35.63462,"lng":137.94596},{"name":"宮田村","kana":"みやだむら","lat":35.76888,"lng":137.94421},{"name":"松川町","kana":"まつかわまち","lat":35.59723,"lng":137.90967},{"name":"高森町","kana":"たかもりまち","lat":35.55154,"lng":137.87852},{"name":"阿南町","kana":"あなんちょう","lat":35.32362,"lng":137.81609},{"name":"阿智村","kana":"あちむら","lat":35.44379,"lng":137.74744},{"name":"平谷村","kana":"ひらやむら","lat":35.32328,"lng":137.63008},{"name":"根羽村","kana":"ねばむら","lat":35.2553,"lng":137.58178},{"name":"下條村","kana":"しもじょうむら","lat":35.39733,"lng":137.78593},{"name":"売木村","kana":"うるぎむら","lat":35.27107,"lng":137.71119},{"name":"天龍村","kana":"てんりゅうむら","lat":35.27631,"lng":137.85424},{"name":"泰阜村","kana":"やすおかむら","lat":35.37743,"lng":137.84616},{"name":"喬木村","kana":"たかぎむら","lat":35.51382,"lng":137.87375},{"name":"豊丘村","kana":"とよおかむら","lat":35.5515,"lng":137.89579},{"name":"大鹿村","kana":"おおしかむら","lat":35.57823,"lng":138.03404},{"name":"上松町","kana":"あげまつまち","lat":35.78219,"lng":137.69323},{"name":"南木曽町","kana":"なぎそまち","lat":35.60379,"lng":137.60894},{"name":"木祖村","kana":"きそむら","lat":35.93631,"lng":137.78316},{"name":"王滝村","kana":"おうたきむら","lat":35.80934,"lng":137.55108},{"name":"大桑村","kana":"おおくわむら","lat":35.68924,"lng":137.67143},{"name":"木曽町","kana":"きそまち","lat":35.84176,"lng":137.69122},{"name":"麻績村","kana":"おみむら","lat":36.45609,"lng":138.04527},{"name":"生坂村","kana":"いくさかむら","lat":36.42523,"lng":137.92748},{"name":"山形村","kana":"やまがたむら","lat":36.1681,"lng":137.87897},{"name":"朝日村","kana":"あさひむら","lat":36.12926,"lng":137.86711},{"name":"筑北村","kana":"ちくほくむら","lat":36.40265,"lng":138.01178},{"name":"池田町","kana":"いけだまち","lat":36.42137,"lng":137.8745},{"name":"松川村","kana":"まつかわむら","lat":36.42404,"lng":137.85456},{"name":"白馬村","kana":"はくばむら","lat":36.69807,"lng":137.86197},{"name":"小谷村","kana":"おたりむら","lat":36.77921,"lng":137.90831},{"name":"坂城町","kana":"さかきまち","lat":36.46184,"lng":138.18011},{"name":"小布施町","kana":"おぶせまち","lat":36.69748,"lng":138.31215},{"name":"高山村","kana":"たかやまむら","lat":36.67977,"lng":138.36326},{"name":"山ノ内町","kana":"やまのうちまち","lat":36.74461,"lng":138.41262},{"name":"木島平村","kana":"きじまだいらむら","lat":36.85789,"lng":138.40704},{"name":"野沢温泉村","kana":"のざわおんせんむら","lat":36.92273,"lng":138.44046},{"name":"信濃町","kana":"しなのまち","lat":36.80638,"lng":138.20699},{"name":"小川村","kana":"おがわむら","lat":36.61713,"lng":137.9748},{"name":"飯綱町","kana":"いいづなまち","lat":36.75446,"lng":138.23543},{"name":"栄村","kana":"さかえむら","lat":36.98748,"lng":138.57736}]},"岐阜県":{"lat":35.39117,"lng":136.72366,"kana":"ぎふけん","cities":[{"name":"岐阜市","kana":"ぎふし","lat":35.4262,"lng":136.75994},{"name":"大垣市","kana":"おおがきし","lat":35.35989,"lng":136.6128},{"name":"高山市","kana":"たかやまし","lat":36.14609,"lng":137.25221},{"name":"多治見市","kana":"たじみし","lat":35.33277,"lng":137.13208},{"name":"関市","kana":"せきし","lat":35.49578,"lng":136.91789},{"name":"中津川市","kana":"なかつがわし","lat":35.48749,"lng":137.50062},{"name":"美濃市","kana":"みのし","lat":35.54471,"lng":136.90757},{"name":"瑞浪市","kana":"みずなみし","lat":35.36174,"lng":137.25464},{"name":"羽島市","kana":"はしまし","lat":35.31949,"lng":136.70272},{"name":"恵那市","kana":"えなし","lat":35.44932,"lng":137.41282},{"name":"美濃加茂市","kana":"みのかもし","lat":35.44024,"lng":137.01566},{"name":"土岐市","kana":"ときし","lat":35.3525,"lng":137.1832},{"name":"各務原市","kana":"かかみがはらし","lat":35.39862,"lng":136.84848},{"name":"可児市","kana":"かにし","lat":35.42613,"lng":137.06107},{"name":"山県市","kana":"やまがたし","lat":35.50611,"lng":136.7814},{"name":"瑞穂市","kana":"みずほし","lat":35.39183,"lng":136.69078},{"name":"飛騨市","kana":"ひだし","lat":36.23814,"lng":137.18625},{"name":"本巣市","kana":"もとすし","lat":35.45539,"lng":136.66593},{"name":"郡上市","kana":"ぐじょうし","lat":35.74857,"lng":136.96437},{"name":"下呂市","kana":"げろし","lat":35.80588,"lng":137.24406},{"name":"海津市","kana":"かいづし","lat":35.22047,"lng":136.63661},{"name":"岐南町","kana":"ぎなんちょう","lat":35.38959,"lng":136.78262},{"name":"笠松町","kana":"かさまつちょう","lat":35.36722,"lng":136.76319},{"name":"養老町","kana":"ようろうちょう","lat":35.30841,"lng":136.56136},{"name":"垂井町","kana":"たるいちょう","lat":35.36625,"lng":136.53797},{"name":"関ケ原町","kana":"せきがはらちょう","lat":35.36552,"lng":136.46698},{"name":"神戸町","kana":"ごうどちょう","lat":35.41735,"lng":136.60852},{"name":"輪之内町","kana":"わのうちちょう","lat":35.28511,"lng":136.63744},{"name":"安八町","kana":"あんぱちちょう","lat":35.33542,"lng":136.66541},{"name":"揖斐川町","kana":"いびがわちょう","lat":35.48695,"lng":136.5682},{"name":"大野町","kana":"おおのちょう","lat":35.47067,"lng":136.62764},{"name":"池田町","kana":"いけだちょう","lat":35.4423,"lng":136.57285},{"name":"北方町","kana":"きたがたちょう","lat":35.43572,"lng":136.68441},{"name":"坂祝町","kana":"さかほぎちょう","lat":35.42673,"lng":136.98537},{"name":"富加町","kana":"とみかちょう","lat":35.48476,"lng":136.97971},{"name":"川辺町","kana":"かわべちょう","lat":35.48655,"lng":137.07061},{"name":"七宗町","kana":"ひちそうちょう","lat":35.54384,"lng":137.11995},{"name":"八百津町","kana":"やおつちょう","lat":35.47599,"lng":137.1415},{"name":"白川町","kana":"しらかわちょう","lat":35.5813,"lng":137.19133},{"name":"東白川村","kana":"ひがししらかわむら","lat":35.64256,"lng":137.32375},{"name":"御嵩町","kana":"みたけちょう","lat":35.43449,"lng":137.13089},{"name":"白川村","kana":"しらかわむら","lat":36.2709,"lng":136.89854}]},"静岡県":{"lat":34.97694,"lng":138.38306,"kana":"しずおかけん","cities":[{"name":"静岡市","kana":"しずおかし","lat":34.97547,"lng":138.38239},{"name":"静岡市葵区","kana":"しずおかしあおいく","lat":34.97514,"lng":138.38326},{"name":"静岡市駿河区","kana":"しずおかしするがく","lat":34.96075,"lng":138.40405},{"name":"静岡市清水区","kana":"しずおかししみずく","lat":35.01573,"lng":138.4896},{"name":"浜松市","kana":"はままつし","lat":34.71081,"lng":137.72631},{"name":"浜松市中央区","kana":"はままつしちゅうおうく","lat":34.71081,"lng":137.72631},{"name":"浜松市浜名区","kana":"はままつしはまなく","lat":34.79155,"lng":137.78316},{"name":"浜松市天竜区","kana":"はままつしてんりゅうく","lat":34.87258,"lng":137.81623},{"name":"沼津市","kana":"ぬまづし","lat":35.09572,"lng":138.86334},{"name":"熱海市","kana":"あたみし","lat":35.09599,"lng":139.07155},{"name":"三島市","kana":"みしまし","lat":35.11848,"lng":138.9185},{"name":"富士宮市","kana":"ふじのみやし","lat":35.22198,"lng":138.62166},{"name":"伊東市","kana":"いとうし","lat":34.96568,"lng":139.10205},{"name":"島田市","kana":"しまだし","lat":34.83612,"lng":138.17695},{"name":"富士市","kana":"ふじし","lat":35.16139,"lng":138.67631},{"name":"磐田市","kana":"いわたし","lat":34.71788,"lng":137.85151},{"name":"焼津市","kana":"やいづし","lat":34.86717,"lng":138.32281},{"name":"掛川市","kana":"かけがわし","lat":34.76872,"lng":137.9984},{"name":"藤枝市","kana":"ふじえだし","lat":34.86735,"lng":138.25755},{"name":"御殿場市","kana":"ごてんばし","lat":35.30862,"lng":138.93451},{"name":"袋井市","kana":"ふくろいし","lat":34.75016,"lng":137.92462},{"name":"下田市","kana":"しもだし","lat":34.69867,"lng":138.93874},{"name":"裾野市","kana":"すそのし","lat":35.17389,"lng":138.90672},{"name":"湖西市","kana":"こさいし","lat":34.71847,"lng":137.53162},{"name":"伊豆市","kana":"いずし","lat":34.97659,"lng":138.94672},{"name":"御前崎市","kana":"おまえざきし","lat":34.63798,"lng":138.12812},{"name":"菊川市","kana":"きくがわし","lat":34.75772,"lng":138.08454},{"name":"伊豆の国市","kana":"いずのくにし","lat":35.02771,"lng":138.92889},{"name":"牧之原市","kana":"まきのはらし","lat":34.74006,"lng":138.22464},{"name":"東伊豆町","kana":"ひがしいずちょう","lat":34.77282,"lng":139.04127},{"name":"河津町","kana":"かわづちょう","lat":34.75702,"lng":138.98762},{"name":"南伊豆町","kana":"みなみいずちょう","lat":34.65109,"lng":138.85853},{"name":"松崎町","kana":"まつざきちょう","lat":34.75276,"lng":138.77876},{"name":"西伊豆町","kana":"にしいずちょう","lat":34.77169,"lng":138.77533},{"name":"函南町","kana":"かんなみちょう","lat":35.08894,"lng":138.95335},{"name":"清水町","kana":"しみずちょう","lat":35.09902,"lng":138.90272},{"name":"長泉町","kana":"ながいずみちょう","lat":35.13771,"lng":138.89726},{"name":"小山町","kana":"おやまちょう","lat":35.36011,"lng":138.9873},{"name":"吉田町","kana":"よしだちょう","lat":34.77087,"lng":138.25194},{"name":"川根本町","kana":"かわねほんちょう","lat":35.04682,"lng":138.08169},{"name":"森町","kana":"もりまち","lat":34.8356,"lng":137.92709}]},"愛知県":{"lat":35.18028,"lng":136.90667,"kana":"あいちけん","cities":[{"name":"名古屋市","kana":"なごやし","lat":35.18143,"lng":136.90642},{"name":"名古屋市千種区","kana":"なごやしちくさく","lat":35.16653,"lng":136.9464},{"name":"名古屋市東区","kana":"なごやしひがしく","lat":35.17931,"lng":136.92604},{"name":"名古屋市北区","kana":"なごやしきたく","lat":35.19417,"lng":136.91156},{"name":"名古屋市西区","kana":"なごやしにしく","lat":35.18911,"lng":136.89006},{"name":"名古屋市中村区","kana":"なごやしなかむらく","lat":35.17672,"lng":136.86863},{"name":"名古屋市中区","kana":"なごやしなかく","lat":35.16861,"lng":136.91016},{"name":"名古屋市昭和区","kana":"なごやししょうわく","lat":35.15022,"lng":136.93417},{"name":"名古屋市瑞穂区","kana":"なごやしみずほく","lat":35.13144,"lng":136.93495},{"name":"名古屋市熱田区","kana":"なごやしあつたく","lat":35.12837,"lng":136.91032},{"name":"名古屋市中川区","kana":"なごやしなかがわく","lat":35.14154,"lng":136.85482},{"name":"名古屋市港区","kana":"なごやしみなとく","lat":35.10779,"lng":136.88555},{"name":"名古屋市南区","kana":"なごやしみなみく","lat":35.09513,"lng":136.93121},{"name":"名古屋市守山区","kana":"なごやしもりやまく","lat":35.20334,"lng":136.97633},{"name":"名古屋市緑区","kana":"なごやしみどりく","lat":35.07072,"lng":136.9526},{"name":"名古屋市名東区","kana":"なごやしめいとうく","lat":35.17586,"lng":137.01024},{"name":"名古屋市天白区","kana":"なごやしてんぱくく","lat":35.12274,"lng":136.97505},{"name":"豊橋市","kana":"とよはしし","lat":34.7692,"lng":137.39147},{"name":"岡崎市","kana":"おかざきし","lat":34.95481,"lng":137.173},{"name":"一宮市","kana":"いちのみやし","lat":35.30401,"lng":136.80234},{"name":"瀬戸市","kana":"せとし","lat":35.22362,"lng":137.08412},{"name":"半田市","kana":"はんだし","lat":34.89263,"lng":136.93785},{"name":"春日井市","kana":"かすがいし","lat":35.24766,"lng":136.97223},{"name":"豊川市","kana":"とよかわし","lat":34.82678,"lng":137.37558},{"name":"津島市","kana":"つしまし","lat":35.17704,"lng":136.74124},{"name":"碧南市","kana":"へきなんし","lat":34.88478,"lng":136.99336},{"name":"刈谷市","kana":"かりやし","lat":34.98886,"lng":137.00206},{"name":"豊田市","kana":"とよたし","lat":35.08234,"lng":137.15622},{"name":"安城市","kana":"あんじょうし","lat":34.95864,"lng":137.0803},{"name":"西尾市","kana":"にしおし","lat":34.86201,"lng":137.06174},{"name":"蒲郡市","kana":"がまごおりし","lat":34.82644,"lng":137.21965},{"name":"犬山市","kana":"いぬやまし","lat":35.37864,"lng":136.94463},{"name":"常滑市","kana":"とこなめし","lat":34.89609,"lng":136.85448},{"name":"江南市","kana":"こうなんし","lat":35.33195,"lng":136.87045},{"name":"小牧市","kana":"こまきし","lat":35.29031,"lng":136.91095},{"name":"稲沢市","kana":"いなざわし","lat":35.24813,"lng":136.78022},{"name":"新城市","kana":"しんしろし","lat":34.89901,"lng":137.49786},{"name":"東海市","kana":"とうかいし","lat":35.02298,"lng":136.90223},{"name":"大府市","kana":"おおぶし","lat":35.01161,"lng":136.96387},{"name":"知多市","kana":"ちたし","lat":34.99653,"lng":136.86476},{"name":"知立市","kana":"ちりゅうし","lat":35.00129,"lng":137.05084},{"name":"尾張旭市","kana":"おわりあさひし","lat":35.21657,"lng":137.03541},{"name":"高浜市","kana":"たかはまし","lat":34.92763,"lng":136.98766},{"name":"岩倉市","kana":"いわくらし","lat":35.27943,"lng":136.87143},{"name":"豊明市","kana":"とよあけし","lat":35.05376,"lng":137.01312},{"name":"日進市","kana":"にっしんし","lat":35.13202,"lng":137.03941},{"name":"田原市","kana":"たはらし","lat":34.66897,"lng":137.26383},{"name":"愛西市","kana":"あいさいし","lat":35.1528,"lng":136.72822},{"name":"清須市","kana":"きよすし","lat":35.19985,"lng":136.85293},{"name":"北名古屋市","kana":"きたなごやし","lat":35.24566,"lng":136.86596},{"name":"弥富市","kana":"やとみし","lat":35.11015,"lng":136.72477},{"name":"みよし市","kana":"みよしし","lat":35.0897,"lng":137.07473},{"name":"あま市","kana":"あまし","lat":35.18824,"lng":136.8037},{"name":"長久手市","kana":"ながくてし","lat":35.18412,"lng":137.04863},{"name":"東郷町","kana":"とうごうちょう","lat":35.09679,"lng":137.05262},{"name":"豊山町","kana":"とよやまちょう","lat":35.25046,"lng":136.91198},{"name":"大口町","kana":"おおぐちちょう","lat":35.33244,"lng":136.90769},{"name":"扶桑町","kana":"ふそうちょう","lat":35.35914,"lng":136.91308},{"name":"大治町","kana":"おおはるちょう","lat":35.17509,"lng":136.8201},{"name":"蟹江町","kana":"かにえちょう","lat":35.13234,"lng":136.78668},{"name":"飛島村","kana":"とびしまむら","lat":35.0788,"lng":136.79116},{"name":"阿久比町","kana":"あぐいちょう","lat":34.93257,"lng":136.91551},{"name":"東浦町","kana":"ひがしうらちょう","lat":34.97714,"lng":136.96557},{"name":"南知多町","kana":"みなみちたちょう","lat":34.71517,"lng":136.92993},{"name":"美浜町","kana":"みはまちょう","lat":34.77884,"lng":136.90825},{"name":"武豊町","kana":"たけとよちょう","lat":34.85097,"lng":136.91494},{"name":"幸田町","kana":"こうたちょう","lat":34.86442,"lng":137.16567},{"name":"設楽町","kana":"したらちょう","lat":35.0971,"lng":137.57142},{"name":"東栄町","kana":"とうえいちょう","lat":35.07693,"lng":137.69783},{"name":"豊根村","kana":"とよねむら","lat":35.14639,"lng":137.71987}]},"三重県":{"lat":34.73028,"lng":136.50861,"kana":"みえけん","cities":[{"name":"津市","kana":"つし","lat":34.71856,"lng":136.50544},{"name":"四日市市","kana":"よっかいちし","lat":34.96509,"lng":136.62443},{"name":"伊勢市","kana":"いせし","lat":34.48751,"lng":136.70929},{"name":"松阪市","kana":"まつさかし","lat":34.57797,"lng":136.52759},{"name":"桑名市","kana":"くわなし","lat":35.06229,"lng":136.68354},{"name":"鈴鹿市","kana":"すずかし","lat":34.88187,"lng":136.58418},{"name":"名張市","kana":"なばりし","lat":34.62766,"lng":136.1083},{"name":"尾鷲市","kana":"おわせし","lat":34.0708,"lng":136.191},{"name":"亀山市","kana":"かめやまし","lat":34.85576,"lng":136.45165},{"name":"鳥羽市","kana":"とばし","lat":34.48143,"lng":136.84338},{"name":"熊野市","kana":"くまのし","lat":33.88862,"lng":136.10029},{"name":"いなべ市","kana":"いなべし","lat":35.15843,"lng":136.5167},{"name":"志摩市","kana":"しまし","lat":34.32822,"lng":136.82966},{"name":"伊賀市","kana":"いがし","lat":34.74989,"lng":136.14229},{"name":"木曽岬町","kana":"きそさきちょう","lat":35.07596,"lng":136.73135},{"name":"東員町","kana":"とういんちょう","lat":35.07413,"lng":136.58376},{"name":"菰野町","kana":"こものちょう","lat":35.02,"lng":136.50735},{"name":"朝日町","kana":"あさひちょう","lat":35.03422,"lng":136.66437},{"name":"川越町","kana":"かわごえちょう","lat":35.02295,"lng":136.67397},{"name":"多気町","kana":"たきちょう","lat":34.49616,"lng":136.54615},{"name":"明和町","kana":"めいわちょう","lat":34.54753,"lng":136.62325},{"name":"大台町","kana":"おおだいちょう","lat":34.39337,"lng":136.40788},{"name":"玉城町","kana":"たまきちょう","lat":34.49028,"lng":136.63093},{"name":"度会町","kana":"わたらいちょう","lat":34.4389,"lng":136.62251},{"name":"大紀町","kana":"たいきちょう","lat":34.35802,"lng":136.4158},{"name":"南伊勢町","kana":"みなみいせちょう","lat":34.35206,"lng":136.70365},{"name":"紀北町","kana":"きほくちょう","lat":34.21147,"lng":136.33728},{"name":"御浜町","kana":"みはまちょう","lat":33.8145,"lng":136.04868},{"name":"紀宝町","kana":"きほうちょう","lat":33.73387,"lng":136.00971}]},"滋賀県":{"lat":35.00444,"lng":135.86833,"kana":"しがけん","cities":[{"name":"大津市","kana":"おおつし","lat":35.01836,"lng":135.85467},{"name":"彦根市","kana":"ひこねし","lat":35.27446,"lng":136.25962},{"name":"長浜市","kana":"ながはまし","lat":35.38076,"lng":136.27838},{"name":"近江八幡市","kana":"おうみはちまんし","lat":35.12816,"lng":136.09768},{"name":"草津市","kana":"くさつし","lat":35.01312,"lng":135.95999},{"name":"守山市","kana":"もりやまし","lat":35.05833,"lng":135.99402},{"name":"栗東市","kana":"りっとうし","lat":35.02161,"lng":135.99799},{"name":"甲賀市","kana":"こうかし","lat":34.96612,"lng":136.16708},{"name":"野洲市","kana":"やすし","lat":35.06747,"lng":136.02587},{"name":"湖南市","kana":"こなんし","lat":35.00411,"lng":136.08469},{"name":"高島市","kana":"たかしまし","lat":35.35305,"lng":136.03579},{"name":"東近江市","kana":"ひがしおうみし","lat":35.1126,"lng":136.20762},{"name":"米原市","kana":"まいばらし","lat":35.31505,"lng":136.2914},{"name":"日野町","kana":"ひのちょう","lat":35.01802,"lng":136.24602},{"name":"竜王町","kana":"りゅうおうちょう","lat":35.06075,"lng":136.12444},{"name":"愛荘町","kana":"あいしょうちょう","lat":35.16883,"lng":136.21231},{"name":"豊郷町","kana":"とよさとちょう","lat":35.20031,"lng":136.23034},{"name":"甲良町","kana":"こうらちょう","lat":35.20422,"lng":136.26135},{"name":"多賀町","kana":"たがちょう","lat":35.22203,"lng":136.2922}]},"京都府":{"lat":35.02124,"lng":135.75561,"kana":"きょうとふ","cities":[{"name":"京都市","kana":"きょうとし","lat":35.01157,"lng":135.76818},{"name":"京都市北区","kana":"きょうとしきたく","lat":35.04097,"lng":135.75399},{"name":"京都市上京区","kana":"きょうとしかみぎょうく","lat":35.02955,"lng":135.75672},{"name":"京都市左京区","kana":"きょうとしさきょうく","lat":35.0486,"lng":135.77854},{"name":"京都市中京区","kana":"きょうとしなかぎょうく","lat":35.0104,"lng":135.75143},{"name":"京都市東山区","kana":"きょうとしひがしやまく","lat":34.99708,"lng":135.77628},{"name":"京都市下京区","kana":"きょうとししもぎょうく","lat":34.98756,"lng":135.75547},{"name":"京都市南区","kana":"きょうとしみなみく","lat":34.97676,"lng":135.74642},{"name":"京都市右京区","kana":"きょうとしうきょうく","lat":35.01012,"lng":135.716},{"name":"京都市伏見区","kana":"きょうとしふしみく","lat":34.93611,"lng":135.76139},{"name":"京都市山科区","kana":"きょうとしやましなく","lat":34.9723,"lng":135.81363},{"name":"京都市西京区","kana":"きょうとしにしきょうく","lat":34.98503,"lng":135.69311},{"name":"福知山市","kana":"ふくちやまし","lat":35.29673,"lng":135.12653},{"name":"舞鶴市","kana":"まいづるし","lat":35.4748,"lng":135.38599},{"name":"綾部市","kana":"あやべし","lat":35.29892,"lng":135.25881},{"name":"宇治市","kana":"うじし","lat":34.8844,"lng":135.79978},{"name":"宮津市","kana":"みやづし","lat":35.53558,"lng":135.19557},{"name":"亀岡市","kana":"かめおかし","lat":35.01347,"lng":135.57351},{"name":"城陽市","kana":"じょうようし","lat":34.85296,"lng":135.78007},{"name":"向日市","kana":"むこうし","lat":34.94838,"lng":135.69837},{"name":"長岡京市","kana":"ながおかきょうし","lat":34.92646,"lng":135.69526},{"name":"八幡市","kana":"やわたし","lat":34.87544,"lng":135.70712},{"name":"京田辺市","kana":"きょうたなべし","lat":34.81444,"lng":135.76784},{"name":"京丹後市","kana":"きょうたんごし","lat":35.62417,"lng":135.061},{"name":"南丹市","kana":"なんたんし","lat":35.10729,"lng":135.4707},{"name":"木津川市","kana":"きづがわし","lat":34.73718,"lng":135.82006},{"name":"大山崎町","kana":"おおやまざきちょう","lat":34.90279,"lng":135.68848},{"name":"久御山町","kana":"くみやまちょう","lat":34.8815,"lng":135.73256},{"name":"井手町","kana":"いでちょう","lat":34.8007,"lng":135.81458},{"name":"宇治田原町","kana":"うじたわらちょう","lat":34.84476,"lng":135.86811},{"name":"笠置町","kana":"かさぎちょう","lat":34.7605,"lng":135.93938},{"name":"和束町","kana":"わづかちょう","lat":34.79573,"lng":135.90487},{"name":"精華町","kana":"せいかちょう","lat":34.76082,"lng":135.78569},{"name":"南山城村","kana":"みなみやましろむら","lat":34.77279,"lng":135.99366},{"name":"京丹波町","kana":"きょうたんばちょう","lat":35.17,"lng":135.41931},{"name":"伊根町","kana":"いねちょう","lat":35.67517,"lng":135.27285},{"name":"与謝野町","kana":"よさのちょう","lat":35.56538,"lng":135.15292}]},"大阪府":{"lat":34.68639,"lng":135.52,"kana":"おおさかふ","cities":[{"name":"大阪市","kana":"おおさかし","lat":34.69389,"lng":135.50205},{"name":"大阪市都島区","kana":"おおさかしみやこじまく","lat":34.70128,"lng":135.52809},{"name":"大阪市福島区","kana":"おおさかしふくしまく","lat":34.69236,"lng":135.47223},{"name":"大阪市此花区","kana":"おおさかしこのはなく","lat":34.68304,"lng":135.45222},{"name":"大阪市西区","kana":"おおさかしにしく","lat":34.67638,"lng":135.48611},{"name":"大阪市港区","kana":"おおさかしみなとく","lat":34.66392,"lng":135.46061},{"name":"大阪市大正区","kana":"おおさかしたいしょうく","lat":34.65042,"lng":135.47269},{"name":"大阪市天王寺区","kana":"おおさかしてんのうじく","lat":34.65787,"lng":135.51937},{"name":"大阪市浪速区","kana":"おおさかしなにわく","lat":34.65942,"lng":135.49955},{"name":"大阪市西淀川区","kana":"おおさかしにしよどがわく","lat":34.71141,"lng":135.4562},{"name":"大阪市東淀川区","kana":"おおさかしひがしよどがわく","lat":34.74131,"lng":135.52934},{"name":"大阪市東成区","kana":"おおさかしひがしなりく","lat":34.67,"lng":135.54122},{"name":"大阪市生野区","kana":"おおさかしいくのく","lat":34.65375,"lng":135.53445},{"name":"大阪市旭区","kana":"おおさかしあさひく","lat":34.72127,"lng":135.54414},{"name":"大阪市城東区","kana":"おおさかしじょうとうく","lat":34.7032,"lng":135.54481},{"name":"大阪市阿倍野区","kana":"おおさかしあべのく","lat":34.63897,"lng":135.5185},{"name":"大阪市住吉区","kana":"おおさかしすみよしく","lat":34.60372,"lng":135.5005},{"name":"大阪市東住吉区","kana":"おおさかしひがしすみよしく","lat":34.62212,"lng":135.52661},{"name":"大阪市西成区","kana":"おおさかしにしなりく","lat":34.63506,"lng":135.49459},{"name":"大阪市淀川区","kana":"おおさかしよどがわく","lat":34.72101,"lng":135.48675},{"name":"大阪市鶴見区","kana":"おおさかしつるみく","lat":34.70457,"lng":135.57419},{"name":"大阪市住之江区","kana":"おおさかしすみのえく","lat":34.60967,"lng":135.48272},{"name":"大阪市平野区","kana":"おおさかしひらのく","lat":34.62116,"lng":135.546},{"name":"大阪市北区","kana":"おおさかしきたく","lat":34.70558,"lng":135.5101},{"name":"大阪市中央区","kana":"おおさかしちゅうおうく","lat":34.68122,"lng":135.50969},{"name":"堺市","kana":"さかいし","lat":34.57335,"lng":135.48302},{"name":"堺市堺区","kana":"さかいしさかいく","lat":34.57335,"lng":135.48302},{"name":"堺市中区","kana":"さかいしなかく","lat":34.52831,"lng":135.49872},{"name":"堺市東区","kana":"さかいしひがしく","lat":34.53823,"lng":135.53647},{"name":"堺市西区","kana":"さかいしにしく","lat":34.53506,"lng":135.46401},{"name":"堺市南区","kana":"さかいしみなみく","lat":34.48644,"lng":135.49054},{"name":"堺市北区","kana":"さかいしきたく","lat":34.56548,"lng":135.51719},{"name":"堺市美原区","kana":"さかいしみはらく","lat":34.53848,"lng":135.55983},{"name":"岸和田市","kana":"きしわだし","lat":34.4606,"lng":135.37087},{"name":"豊中市","kana":"とよなかし","lat":34.78124,"lng":135.46989},{"name":"池田市","kana":"いけだし","lat":34.82169,"lng":135.42855},{"name":"吹田市","kana":"すいたし","lat":34.75941,"lng":135.5168},{"name":"泉大津市","kana":"いずみおおつし","lat":34.50427,"lng":135.41047},{"name":"高槻市","kana":"たかつきし","lat":34.8461,"lng":135.61722},{"name":"貝塚市","kana":"かいづかし","lat":34.43741,"lng":135.35812},{"name":"守口市","kana":"もりぐちし","lat":34.73581,"lng":135.56172},{"name":"枚方市","kana":"ひらかたし","lat":34.81446,"lng":135.65064},{"name":"茨木市","kana":"いばらきし","lat":34.81615,"lng":135.5685},{"name":"八尾市","kana":"やおし","lat":34.62688,"lng":135.60095},{"name":"泉佐野市","kana":"いずみさのし","lat":34.40684,"lng":135.32734},{"name":"富田林市","kana":"とんだばやしし","lat":34.49968,"lng":135.59728},{"name":"寝屋川市","kana":"ねやがわし","lat":34.76608,"lng":135.62801},{"name":"河内長野市","kana":"かわちながのし","lat":34.45811,"lng":135.56412},{"name":"松原市","kana":"まつばらし","lat":34.5779,"lng":135.55179},{"name":"大東市","kana":"だいとうし","lat":34.71201,"lng":135.62347},{"name":"和泉市","kana":"いずみし","lat":34.48315,"lng":135.42331},{"name":"箕面市","kana":"みのおし","lat":34.82693,"lng":135.47038},{"name":"柏原市","kana":"かしわらし","lat":34.57829,"lng":135.62925},{"name":"羽曳野市","kana":"はびきのし","lat":34.558,"lng":135.60623},{"name":"門真市","kana":"かどまし","lat":34.73915,"lng":135.5869},{"name":"摂津市","kana":"せっつし","lat":34.77739,"lng":135.56189},{"name":"高石市","kana":"たかいしし","lat":34.52067,"lng":135.4424},{"name":"藤井寺市","kana":"ふじいでらし","lat":34.57428,"lng":135.59748},{"name":"東大阪市","kana":"ひがしおおさかし","lat":34.67932,"lng":135.6009},{"name":"泉南市","kana":"せんなんし","lat":34.36601,"lng":135.2733},{"name":"四條畷市","kana":"しじょうなわてし","lat":34.74006,"lng":135.63973},{"name":"交野市","kana":"かたのし","lat":34.78796,"lng":135.67998},{"name":"大阪狭山市","kana":"おおさかさやまし","lat":34.50372,"lng":135.55575},{"name":"阪南市","kana":"はんなんし","lat":34.35959,"lng":135.23966},{"name":"島本町","kana":"しまもとちょう","lat":34.88345,"lng":135.6628},{"name":"豊能町","kana":"とよのちょう","lat":34.91885,"lng":135.4941},{"name":"能勢町","kana":"のせちょう","lat":34.97344,"lng":135.41389},{"name":"忠岡町","kana":"ただおかちょう","lat":34.48712,"lng":135.4015},{"name":"熊取町","kana":"くまとりちょう","lat":34.40131,"lng":135.35586},{"name":"田尻町","kana":"たじりちょう","lat":34.39378,"lng":135.29118},{"name":"岬町","kana":"みさきちょう","lat":34.3169,"lng":135.14209},{"name":"太子町","kana":"たいしちょう","lat":34.51866,"lng":135.64773},{"name":"河南町","kana":"かなんちょう","lat":34.49164,"lng":135.62988},{"name":"千早赤阪村","kana":"ちはやあかさかむら","lat":34.4646,"lng":135.62253}]},"兵庫県":{"lat":34.69126,"lng":135.18308,"kana":"ひょうごけん","cities":[{"name":"神戸市","kana":"こうべし","lat":34.6895,"lng":135.19573},{"name":"神戸市東灘区","kana":"こうべしひがしなだく","lat":34.72016,"lng":135.26543},{"name":"神戸市灘区","kana":"こうべしなだく","lat":34.71236,"lng":135.23957},{"name":"神戸市兵庫区","kana":"こうべしひょうごく","lat":34.68058,"lng":135.16538},{"name":"神戸市長田区","kana":"こうべしながたく","lat":34.66569,"lng":135.15085},{"name":"神戸市須磨区","kana":"こうべしすまく","lat":34.65863,"lng":135.1337},{"name":"神戸市垂水区","kana":"こうべしたるみく","lat":34.63061,"lng":135.05692},{"name":"神戸市北区","kana":"こうべしきたく","lat":34.7242,"lng":135.1462},{"name":"神戸市中央区","kana":"こうべしちゅうおうく","lat":34.6897,"lng":135.19486},{"name":"神戸市西区","kana":"こうべしにしく","lat":34.72091,"lng":135.01934},{"name":"姫路市","kana":"ひめじし","lat":34.8155,"lng":134.68546},{"name":"尼崎市","kana":"あまがさきし","lat":34.73355,"lng":135.40639},{"name":"明石市","kana":"あかしし","lat":34.64311,"lng":134.99718},{"name":"西宮市","kana":"にしのみやし","lat":34.73769,"lng":135.34183},{"name":"洲本市","kana":"すもとし","lat":34.34252,"lng":134.89565},{"name":"芦屋市","kana":"あしやし","lat":34.72652,"lng":135.30418},{"name":"伊丹市","kana":"いたみし","lat":34.78446,"lng":135.40037},{"name":"相生市","kana":"あいおいし","lat":34.80366,"lng":134.46819},{"name":"豊岡市","kana":"とよおかし","lat":35.54447,"lng":134.82019},{"name":"加古川市","kana":"かこがわし","lat":34.75662,"lng":134.8409},{"name":"赤穂市","kana":"あこうし","lat":34.75497,"lng":134.39035},{"name":"西脇市","kana":"にしわきし","lat":34.98343,"lng":134.97973},{"name":"宝塚市","kana":"たからづかし","lat":34.79982,"lng":135.3601},{"name":"三木市","kana":"みきし","lat":34.79692,"lng":134.99019},{"name":"高砂市","kana":"たかさごし","lat":34.76632,"lng":134.79051},{"name":"川西市","kana":"かわにしし","lat":34.83013,"lng":135.41722},{"name":"小野市","kana":"おのし","lat":34.85788,"lng":134.93988},{"name":"三田市","kana":"さんだし","lat":34.88967,"lng":135.22529},{"name":"加西市","kana":"かさいし","lat":34.92781,"lng":134.84182},{"name":"丹波篠山市","kana":"たんばささやまし","lat":35.07567,"lng":135.219},{"name":"養父市","kana":"やぶし","lat":35.40464,"lng":134.76767},{"name":"丹波市","kana":"たんばし","lat":35.17726,"lng":135.03582},{"name":"南あわじ市","kana":"みなみあわじし","lat":34.29442,"lng":134.77995},{"name":"朝来市","kana":"あさごし","lat":35.33984,"lng":134.85312},{"name":"淡路市","kana":"あわじし","lat":34.43985,"lng":134.91463},{"name":"宍粟市","kana":"しそうし","lat":35.00444,"lng":134.54938},{"name":"加東市","kana":"かとうし","lat":34.91737,"lng":134.97334},{"name":"たつの市","kana":"たつのし","lat":34.85785,"lng":134.5454},{"name":"猪名川町","kana":"いながわちょう","lat":34.89497,"lng":135.37616},{"name":"多可町","kana":"たかちょう","lat":35.05031,"lng":134.92336},{"name":"稲美町","kana":"いなみちょう","lat":34.74863,"lng":134.91338},{"name":"播磨町","kana":"はりまちょう","lat":34.7153,"lng":134.86791},{"name":"市川町","kana":"いちかわちょう","lat":34.98936,"lng":134.76329},{"name":"福崎町","kana":"ふくさきちょう","lat":34.95032,"lng":134.76024},{"name":"神河町","kana":"かみかわちょう","lat":35.06423,"lng":134.73986},{"name":"太子町","kana":"たいしちょう","lat":34.83325,"lng":134.57232},{"name":"上郡町","kana":"かみごおりちょう","lat":34.87358,"lng":134.3561},{"name":"佐用町","kana":"さようちょう","lat":35.0043,"lng":134.35577},{"name":"香美町","kana":"かみちょう","lat":35.63217,"lng":134.62918},{"name":"新温泉町","kana":"しんおんせんちょう","lat":35.62351,"lng":134.44894}]},"奈良県":{"lat":34.68528,"lng":135.83278,"kana":"ならけん","cities":[{"name":"奈良市","kana":"ならし","lat":34.68512,"lng":135.80499},{"name":"大和高田市","kana":"やまとたかだし","lat":34.51575,"lng":135.73739},{"name":"大和郡山市","kana":"やまとこおりやまし","lat":34.64962,"lng":135.78271},{"name":"天理市","kana":"てんりし","lat":34.59662,"lng":135.83737},{"name":"橿原市","kana":"かしはらし","lat":34.50945,"lng":135.79276},{"name":"桜井市","kana":"さくらいし","lat":34.51884,"lng":135.84274},{"name":"五條市","kana":"ごじょうし","lat":34.35636,"lng":135.69556},{"name":"御所市","kana":"ごせし","lat":34.46334,"lng":135.74018},{"name":"生駒市","kana":"いこまし","lat":34.69198,"lng":135.70055},{"name":"香芝市","kana":"かしばし","lat":34.54129,"lng":135.69916},{"name":"葛城市","kana":"かつらぎし","lat":34.48916,"lng":135.72656},{"name":"宇陀市","kana":"うだし","lat":34.52807,"lng":135.9523},{"name":"山添村","kana":"やまぞえむら","lat":34.68126,"lng":136.0438},{"name":"平群町","kana":"へぐりちょう","lat":34.62915,"lng":135.70071},{"name":"三郷町","kana":"さんごうちょう","lat":34.59998,"lng":135.69543},{"name":"斑鳩町","kana":"いかるがちょう","lat":34.60885,"lng":135.73059},{"name":"安堵町","kana":"あんどちょう","lat":34.60649,"lng":135.75678},{"name":"川西町","kana":"かわにしちょう","lat":34.58438,"lng":135.77387},{"name":"三宅町","kana":"みやけちょう","lat":34.57368,"lng":135.77318},{"name":"田原本町","kana":"たわらもとちょう","lat":34.55667,"lng":135.79494},{"name":"曽爾村","kana":"そにむら","lat":34.51066,"lng":136.12447},{"name":"御杖村","kana":"みつえむら","lat":34.48839,"lng":136.16591},{"name":"高取町","kana":"たかとりちょう","lat":34.44947,"lng":135.79317},{"name":"明日香村","kana":"あすかむら","lat":34.47051,"lng":135.81254},{"name":"上牧町","kana":"かんまきちょう","lat":34.56272,"lng":135.71667},{"name":"王寺町","kana":"おうじちょう","lat":34.5947,"lng":135.7067},{"name":"広陵町","kana":"こうりょうちょう","lat":34.54274,"lng":135.75084},{"name":"河合町","kana":"かわいちょう","lat":34.57837,"lng":135.7367},{"name":"吉野町","kana":"よしのちょう","lat":34.39605,"lng":135.85761},{"name":"大淀町","kana":"おおよどちょう","lat":34.39053,"lng":135.7898},{"name":"下市町","kana":"しもいちちょう","lat":34.36095,"lng":135.79187},{"name":"黒滝村","kana":"くろたきむら","lat":34.30928,"lng":135.85225},{"name":"天川村","kana":"てんかわむら","lat":34.24193,"lng":135.85513},{"name":"野迫川村","kana":"のせがわむら","lat":34.16629,"lng":135.63303},{"name":"十津川村","kana":"とつかわむら","lat":33.9885,"lng":135.79261},{"name":"下北山村","kana":"しもきたやまむら","lat":34.00489,"lng":135.95415},{"name":"上北山村","kana":"かみきたやまむら","lat":34.13432,"lng":136.00015},{"name":"川上村","kana":"かわかみむら","lat":34.33812,"lng":135.9543},{"name":"東吉野村","kana":"ひがしよしのむら","lat":34.40354,"lng":135.96831}]},"和歌山県":{"lat":34.22611,"lng":135.1675,"kana":"わかやまけん","cities":[{"name":"和歌山市","kana":"わかやまし","lat":34.23051,"lng":135.17081},{"name":"海南市","kana":"かいなんし","lat":34.15753,"lng":135.23968},{"name":"橋本市","kana":"はしもとし","lat":34.31488,"lng":135.60521},{"name":"有田市","kana":"ありだし","lat":34.0831,"lng":135.12773},{"name":"御坊市","kana":"ごぼうし","lat":33.89106,"lng":135.15229},{"name":"田辺市","kana":"たなべし","lat":33.72911,"lng":135.38893},{"name":"新宮市","kana":"しんぐうし","lat":33.72422,"lng":135.99253},{"name":"紀の川市","kana":"きのかわし","lat":34.26954,"lng":135.36258},{"name":"岩出市","kana":"いわでし","lat":34.25627,"lng":135.31145},{"name":"紀美野町","kana":"きみのちょう","lat":34.16719,"lng":135.30758},{"name":"かつらぎ町","kana":"かつらぎちょう","lat":34.29642,"lng":135.5038},{"name":"九度山町","kana":"くどやまちょう","lat":34.28719,"lng":135.56224},{"name":"高野町","kana":"こうやちょう","lat":34.21608,"lng":135.58654},{"name":"湯浅町","kana":"ゆあさちょう","lat":34.02942,"lng":135.19043},{"name":"広川町","kana":"ひろがわちょう","lat":34.02996,"lng":135.17307},{"name":"有田川町","kana":"ありだがわちょう","lat":34.05749,"lng":135.21612},{"name":"美浜町","kana":"みはまちょう","lat":33.89381,"lng":135.13326},{"name":"日高町","kana":"ひだかちょう","lat":33.92568,"lng":135.14107},{"name":"由良町","kana":"ゆらちょう","lat":33.95925,"lng":135.11819},{"name":"印南町","kana":"いなみちょう","lat":33.81953,"lng":135.22251},{"name":"みなべ町","kana":"みなべちょう","lat":33.77233,"lng":135.32143},{"name":"日高川町","kana":"ひだかがわちょう","lat":33.91169,"lng":135.186},{"name":"白浜町","kana":"しらはまちょう","lat":33.67819,"lng":135.34811},{"name":"上富田町","kana":"かみとんだちょう","lat":33.69635,"lng":135.4288},{"name":"すさみ町","kana":"すさみちょう","lat":33.55006,"lng":135.49668},{"name":"那智勝浦町","kana":"なちかつうらちょう","lat":33.62599,"lng":135.94104},{"name":"太地町","kana":"たいじちょう","lat":33.59404,"lng":135.94396},{"name":"古座川町","kana":"こざがわちょう","lat":33.53199,"lng":135.815},{"name":"北山村","kana":"きたやまむら","lat":33.9321,"lng":135.9693},{"name":"串本町","kana":"くしもとちょう","lat":33.48569,"lng":135.78702}]},"鳥取県":{"lat":35.50345,"lng":134.23826,"kana":"とっとりけん","cities":[{"name":"鳥取市","kana":"とっとりし","lat":35.49445,"lng":134.22215},{"name":"米子市","kana":"よなごし","lat":35.42814,"lng":133.33094},{"name":"倉吉市","kana":"くらよしし","lat":35.43018,"lng":133.82556},{"name":"境港市","kana":"さかいみなとし","lat":35.53961,"lng":133.2316},{"name":"岩美町","kana":"いわみちょう","lat":35.5759,"lng":134.33209},{"name":"若桜町","kana":"わかさちょう","lat":35.34015,"lng":134.40099},{"name":"智頭町","kana":"ちづちょう","lat":35.26508,"lng":134.22659},{"name":"八頭町","kana":"やずちょう","lat":35.40921,"lng":134.25053},{"name":"三朝町","kana":"みささちょう","lat":35.40846,"lng":133.86174},{"name":"湯梨浜町","kana":"ゆりはまちょう","lat":35.48992,"lng":133.86468},{"name":"琴浦町","kana":"ことうらちょう","lat":35.49518,"lng":133.69278},{"name":"北栄町","kana":"ほくえいちょう","lat":35.49001,"lng":133.75829},{"name":"日吉津村","kana":"ひえづそん","lat":35.44018,"lng":133.38081},{"name":"大山町","kana":"だいせんちょう","lat":35.51078,"lng":133.49612},{"name":"南部町","kana":"なんぶちょう","lat":35.34033,"lng":133.32683},{"name":"伯耆町","kana":"ほうきちょう","lat":35.38523,"lng":133.40738},{"name":"日南町","kana":"にちなんちょう","lat":35.16331,"lng":133.30625},{"name":"日野町","kana":"ひのちょう","lat":35.24079,"lng":133.44266},{"name":"江府町","kana":"こうふちょう","lat":35.27589,"lng":133.47913}]},"島根県":{"lat":35.47229,"lng":133.05052,"kana":"しまねけん","cities":[{"name":"松江市","kana":"まつえし","lat":35.46782,"lng":133.04852},{"name":"浜田市","kana":"はまだし","lat":34.89925,"lng":132.07988},{"name":"出雲市","kana":"いずもし","lat":35.36692,"lng":132.75471},{"name":"益田市","kana":"ますだし","lat":34.67481,"lng":131.84286},{"name":"大田市","kana":"おおだし","lat":35.19209,"lng":132.49935},{"name":"安来市","kana":"やすぎし","lat":35.43145,"lng":133.25085},{"name":"江津市","kana":"ごうつし","lat":35.01162,"lng":132.21775},{"name":"雲南市","kana":"うんなんし","lat":35.30772,"lng":132.90034},{"name":"奥出雲町","kana":"おくいずもちょう","lat":35.19743,"lng":133.00255},{"name":"飯南町","kana":"いいなんちょう","lat":35.00004,"lng":132.71387},{"name":"川本町","kana":"かわもとまち","lat":34.99521,"lng":132.49585},{"name":"美郷町","kana":"みさとちょう","lat":35.07651,"lng":132.59054},{"name":"邑南町","kana":"おおなんちょう","lat":34.89393,"lng":132.43798},{"name":"津和野町","kana":"つわのちょう","lat":34.54196,"lng":131.83508},{"name":"吉賀町","kana":"よしかちょう","lat":34.35351,"lng":131.93514},{"name":"海士町","kana":"あまちょう","lat":36.09669,"lng":133.09646},{"name":"西ノ島町","kana":"にしのしまちょう","lat":36.09183,"lng":133.01347},{"name":"知夫村","kana":"ちぶむら","lat":36.01393,"lng":133.03937},{"name":"隠岐の島町","kana":"おきのしまちょう","lat":36.21339,"lng":133.31182}]},"岡山県":{"lat":34.66174,"lng":133.93503,"kana":"おかやまけん","cities":[{"name":"岡山市","kana":"おかやまし","lat":34.65511,"lng":133.91957},{"name":"岡山市北区","kana":"おかやましきたく","lat":34.65511,"lng":133.91957},{"name":"岡山市中区","kana":"おかやましなかく","lat":34.67078,"lng":133.94314},{"name":"岡山市東区","kana":"おかやましひがしく","lat":34.65137,"lng":134.02946},{"name":"岡山市南区","kana":"おかやましみなみく","lat":34.59977,"lng":133.91955},{"name":"倉敷市","kana":"くらしきし","lat":34.58468,"lng":133.77228},{"name":"津山市","kana":"つやまし","lat":35.06912,"lng":134.00454},{"name":"玉野市","kana":"たまのし","lat":34.49198,"lng":133.94601},{"name":"笠岡市","kana":"かさおかし","lat":34.50718,"lng":133.50744},{"name":"井原市","kana":"いばらし","lat":34.59771,"lng":133.4638},{"name":"総社市","kana":"そうじゃし","lat":34.67255,"lng":133.74673},{"name":"高梁市","kana":"たかはしし","lat":34.79136,"lng":133.61668},{"name":"新見市","kana":"にいみし","lat":34.97706,"lng":133.47035},{"name":"備前市","kana":"びぜんし","lat":34.74518,"lng":134.1888},{"name":"瀬戸内市","kana":"せとうちし","lat":34.66489,"lng":134.09285},{"name":"赤磐市","kana":"あかいわし","lat":34.7554,"lng":134.01885},{"name":"真庭市","kana":"まにわし","lat":35.07559,"lng":133.75276},{"name":"美作市","kana":"みまさかし","lat":35.02637,"lng":134.15975},{"name":"浅口市","kana":"あさくちし","lat":34.52783,"lng":133.58491},{"name":"和気町","kana":"わけちょう","lat":34.80288,"lng":134.15754},{"name":"早島町","kana":"はやしまちょう","lat":34.60082,"lng":133.8283},{"name":"里庄町","kana":"さとしょうちょう","lat":34.51374,"lng":133.55689},{"name":"矢掛町","kana":"やかげちょう","lat":34.6276,"lng":133.58709},{"name":"新庄村","kana":"しんじょうそん","lat":35.17969,"lng":133.56776},{"name":"鏡野町","kana":"かがみのちょう","lat":35.09177,"lng":133.93303},{"name":"勝央町","kana":"しょうおうちょう","lat":35.04179,"lng":134.11617},{"name":"奈義町","kana":"なぎちょう","lat":35.12302,"lng":134.17743},{"name":"西粟倉村","kana":"にしあわくらそん","lat":35.17177,"lng":134.33569},{"name":"久米南町","kana":"くめなんちょう","lat":34.92897,"lng":133.96046},{"name":"美咲町","kana":"みさきちょう","lat":34.99696,"lng":133.95458},{"name":"吉備中央町","kana":"きびちゅうおうちょう","lat":34.8634,"lng":133.6935}]},"広島県":{"lat":34.39656,"lng":132.45965,"kana":"ひろしまけん","cities":[{"name":"広島市","kana":"ひろしまし","lat":34.38525,"lng":132.45534},{"name":"広島市中区","kana":"ひろしましなかく","lat":34.38629,"lng":132.45499},{"name":"広島市東区","kana":"ひろしましひがしく","lat":34.39533,"lng":132.48238},{"name":"広島市南区","kana":"ひろしましみなみく","lat":34.37988,"lng":132.46906},{"name":"広島市西区","kana":"ひろしましにしく","lat":34.39397,"lng":132.43443},{"name":"広島市安佐南区","kana":"ひろしましあさみなみく","lat":34.45185,"lng":132.47164},{"name":"広島市安佐北区","kana":"ひろしましあさきたく","lat":34.51828,"lng":132.50763},{"name":"広島市安芸区","kana":"ひろしましあきく","lat":34.37176,"lng":132.52554},{"name":"広島市佐伯区","kana":"ひろしましさえきく","lat":34.36446,"lng":132.36082},{"name":"呉市","kana":"くれし","lat":34.24925,"lng":132.56581},{"name":"竹原市","kana":"たけはらし","lat":34.34116,"lng":132.90535},{"name":"三原市","kana":"みはらし","lat":34.39747,"lng":133.07853},{"name":"尾道市","kana":"おのみちし","lat":34.40916,"lng":133.20563},{"name":"福山市","kana":"ふくやまし","lat":34.48593,"lng":133.36234},{"name":"府中市","kana":"ふちゅうし","lat":34.56835,"lng":133.23632},{"name":"三次市","kana":"みよしし","lat":34.80563,"lng":132.85179},{"name":"庄原市","kana":"しょうばらし","lat":34.85774,"lng":133.01726},{"name":"大竹市","kana":"おおたけし","lat":34.23795,"lng":132.22236},{"name":"東広島市","kana":"ひがしひろしまし","lat":34.42679,"lng":132.74375},{"name":"廿日市市","kana":"はつかいちし","lat":34.34842,"lng":132.33154},{"name":"安芸高田市","kana":"あきたかたし","lat":34.6661,"lng":132.70398},{"name":"江田島市","kana":"えたじまし","lat":34.17497,"lng":132.46221},{"name":"府中町","kana":"ふちゅうちょう","lat":34.39259,"lng":132.50454},{"name":"海田町","kana":"かいたちょう","lat":34.3664,"lng":132.53625},{"name":"熊野町","kana":"くまのちょう","lat":34.33578,"lng":132.5846},{"name":"坂町","kana":"さかちょう","lat":34.34128,"lng":132.51364},{"name":"安芸太田町","kana":"あきおおたちょう","lat":34.57673,"lng":132.22714},{"name":"北広島町","kana":"きたひろしまちょう","lat":34.67454,"lng":132.53843},{"name":"大崎上島町","kana":"おおさきかみじまちょう","lat":34.26955,"lng":132.91496},{"name":"世羅町","kana":"せらちょう","lat":34.58684,"lng":133.05663},{"name":"神石高原町","kana":"じんせきこうげんちょう","lat":34.70361,"lng":133.25165}]},"山口県":{"lat":34.18583,"lng":131.47139,"kana":"やまぐちけん","cities":[{"name":"下関市","kana":"しものせきし","lat":33.95728,"lng":130.94093},{"name":"宇部市","kana":"うべし","lat":33.95182,"lng":131.24731},{"name":"山口市","kana":"やまぐちし","lat":34.17784,"lng":131.47302},{"name":"萩市","kana":"はぎし","lat":34.40811,"lng":131.3991},{"name":"防府市","kana":"ほうふし","lat":34.05143,"lng":131.56278},{"name":"下松市","kana":"くだまつし","lat":34.01504,"lng":131.87032},{"name":"岩国市","kana":"いわくにし","lat":34.1665,"lng":132.21894},{"name":"光市","kana":"ひかりし","lat":33.96192,"lng":131.9423},{"name":"長門市","kana":"ながとし","lat":34.37096,"lng":131.1822},{"name":"柳井市","kana":"やないし","lat":33.96384,"lng":132.1016},{"name":"美祢市","kana":"みねし","lat":34.16671,"lng":131.2062},{"name":"周南市","kana":"しゅうなんし","lat":34.05513,"lng":131.80629},{"name":"山陽小野田市","kana":"さんようおのだし","lat":34.00309,"lng":131.18179},{"name":"周防大島町","kana":"すおうおおしまちょう","lat":33.92763,"lng":132.19532},{"name":"和木町","kana":"わきちょう","lat":34.20241,"lng":132.2204},{"name":"上関町","kana":"かみのせきちょう","lat":33.8308,"lng":132.11021},{"name":"田布施町","kana":"たぶせちょう","lat":33.95468,"lng":132.04137},{"name":"平生町","kana":"ひらおちょう","lat":33.93819,"lng":132.07361},{"name":"阿武町","kana":"あぶちょう","lat":34.50335,"lng":131.47136}]},"徳島県":{"lat":34.06571,"lng":134.55942,"kana":"とくしまけん","cities":[{"name":"徳島市","kana":"とくしまし","lat":34.07023,"lng":134.55471},{"name":"鳴門市","kana":"なるとし","lat":34.17292,"lng":134.60893},{"name":"小松島市","kana":"こまつしまし","lat":34.00471,"lng":134.5906},{"name":"阿南市","kana":"あなんし","lat":33.92176,"lng":134.65957},{"name":"吉野川市","kana":"よしのがわし","lat":34.06623,"lng":134.35867},{"name":"阿波市","kana":"あわし","lat":34.10214,"lng":134.29746},{"name":"美馬市","kana":"みまし","lat":34.05339,"lng":134.16972},{"name":"三好市","kana":"みよしし","lat":34.02641,"lng":133.80705},{"name":"勝浦町","kana":"かつうらちょう","lat":33.93145,"lng":134.51125},{"name":"上勝町","kana":"かみかつちょう","lat":33.88884,"lng":134.40182},{"name":"佐那河内村","kana":"さなごうちそん","lat":33.99379,"lng":134.4577},{"name":"石井町","kana":"いしいちょう","lat":34.0747,"lng":134.44076},{"name":"神山町","kana":"かみやまちょう","lat":33.96722,"lng":134.35053},{"name":"那賀町","kana":"なかちょう","lat":33.8575,"lng":134.49674},{"name":"牟岐町","kana":"むぎちょう","lat":33.66831,"lng":134.42066},{"name":"美波町","kana":"みなみちょう","lat":33.73457,"lng":134.53541},{"name":"海陽町","kana":"かいようちょう","lat":33.60204,"lng":134.35187},{"name":"松茂町","kana":"まつしげちょう","lat":34.13385,"lng":134.58054},{"name":"北島町","kana":"きたじまちょう","lat":34.12559,"lng":134.54699},{"name":"藍住町","kana":"あいずみちょう","lat":34.12678,"lng":134.49511},{"name":"板野町","kana":"いたのちょう","lat":34.14436,"lng":134.46262},{"name":"上板町","kana":"かみいたちょう","lat":34.12136,"lng":134.405},{"name":"つるぎ町","kana":"つるぎちょう","lat":34.03731,"lng":134.06405},{"name":"東みよし町","kana":"ひがしみよしちょう","lat":34.03679,"lng":133.93676}]},"香川県":{"lat":34.34009,"lng":134.04322,"kana":"かがわけん","cities":[{"name":"高松市","kana":"たかまつし","lat":34.34279,"lng":134.04657},{"name":"丸亀市","kana":"まるがめし","lat":34.28989,"lng":133.79871},{"name":"坂出市","kana":"さかいでし","lat":34.31669,"lng":133.86049},{"name":"善通寺市","kana":"ぜんつうじし","lat":34.22716,"lng":133.78719},{"name":"観音寺市","kana":"かんおんじし","lat":34.12737,"lng":133.6616},{"name":"さぬき市","kana":"さぬきし","lat":34.32521,"lng":134.17199},{"name":"東かがわ市","kana":"ひがしかがわし","lat":34.2438,"lng":134.35884},{"name":"三豊市","kana":"みとよし","lat":34.18256,"lng":133.7152},{"name":"土庄町","kana":"とのしょうちょう","lat":34.48665,"lng":134.18863},{"name":"小豆島町","kana":"しょうどしまちょう","lat":34.47971,"lng":134.30888},{"name":"三木町","kana":"みきちょう","lat":34.26835,"lng":134.13436},{"name":"直島町","kana":"なおしまちょう","lat":34.45983,"lng":133.99564},{"name":"宇多津町","kana":"うたづちょう","lat":34.3103,"lng":133.82557},{"name":"綾川町","kana":"あやがわちょう","lat":34.24961,"lng":133.9231},{"name":"琴平町","kana":"ことひらちょう","lat":34.19142,"lng":133.8233},{"name":"多度津町","kana":"たどつちょう","lat":34.27271,"lng":133.75855},{"name":"まんのう町","kana":"まんのうちょう","lat":34.19233,"lng":133.84139}]},"愛媛県":{"lat":33.84167,"lng":132.76611,"kana":"えひめけん","cities":[{"name":"松山市","kana":"まつやまし","lat":33.83916,"lng":132.76556},{"name":"今治市","kana":"いまばりし","lat":34.06604,"lng":132.99766},{"name":"宇和島市","kana":"うわじまし","lat":33.22334,"lng":132.56056},